{"company": "SPI Cinemas", "director": "Jayendra", "year": 2011, "distributor": "", "title": "180", "writer": "Umarji Anuradha, Jayendra, Aarthi Sriram, & Suba ", "longitude": -122.356952, "actors": ["Siddarth", "Nithya Menon", "Priya Anand"], "location": "City Hall", "latitude": 37.9137666, "fact": ""}
{"company": "SPI Cinemas", "director": "Jayendra", "year": 2011, "distributor": "", "title": "180", "writer": "Umarji Anuradha, Jayendra, Aarthi Sriram, & Suba ", "longitude": -122.3890232, "actors": ["Siddarth", "Nithya Menon", "Priya Anand"], "location": "Epic Roasthouse (399 Embarcadero)", "latitude": 37.7904771, "fact": ""}
{"company": "SPI Cinemas", "director": "Jayendra", "year": 2011, "distributor": "", "title": "180", "writer": "Umarji Anuradha, Jayendra, Aarthi Sriram, & Suba ", "longitude": -122.416113, "actors": ["Siddarth", "Nithya Menon", "Priya Anand"], "location": "Mason & California Streets (Nob Hill)", "latitude": 37.793014, "fact": ""}
{"company": "SPI Cinemas", "director": "Jayendra", "year": 2011, "distributor": "", "title": "180", "writer": "Umarji Anuradha, Jayendra, Aarthi Sriram, & Suba ", "longitude": -122.4163153, "actors": ["Siddarth", "Nithya Menon", "Priya Anand"], "location": "Polk & Larkin Streets", "latitude": 37.7774954, "fact": ""}
{"company": "SPI Cinemas", "director": "Jayendra", "year": 2011, "distributor": "", "title": "180", "writer": "Umarji Anuradha, Jayendra, Aarthi Sriram, & Suba ", "longitude": -122.3999088, "actors": ["Siddarth", "Nithya Menon", "Priya Anand"], "location": "555 Market St.", "latitude": 37.78999900000001, "fact": ""}
{"company": "SPI Cinemas", "director": "Jayendra", "year": 2011, "distributor": "", "title": "180", "writer": "Umarji Anuradha, Jayendra, Aarthi Sriram, & Suba ", "longitude": -122.3965604, "actors": ["Siddarth", "Nithya Menon", "Priya Anand"], "location": "200 block Market Street", "latitude": 37.7931331, "fact": ""}
{"company": "Miramax Films", "director": "Michael Lehmann", "year": 2002, "distributor": "Miramax Films", "title": "40 Days and 40 Nights", "writer": "Robert Perez", "longitude": -122.4076265, "actors": ["Josh Hartnett", "Shaynnyn Sossamon"], "location": "Caf\u00e9 Trieste (609 Vallejo)", "latitude": 37.7986507, "fact": "Francis Ford Coppola allegedly wrote large portions of \"The Godfather\" trilogy in Caf\u00e9 Trieste."}
{"company": "Columbia Pictures Corporation", "director": "Peter Segal", "year": 2004, "distributor": "Columbia Pictures", "title": "50 First Dates", "writer": "George Wing", "longitude": -122.4146114, "actors": ["Adam Sandler", "Drew Barrymore", "Rob Schneider"], "location": "Rainforest Caf\u00e9 (145 Jefferson Street)", "latitude": 37.8080708, "fact": ""}
{"company": "NBC Studios", "director": "Mark J. Kunerth", "year": 2014, "distributor": "National Broadcasting Company", "title": "About a Boy", "writer": "Jason Katims", "longitude": -122.4548624, "actors": ["David Walton", "Minnie Driver"], "location": "Crissy Field", "latitude": 37.8049553, "fact": ""}
{"company": "Metro-Goldwyn Mayer", "director": "W.S. Van Dyke", "year": 1936, "distributor": "Metro-Goldwyn Mayer", "title": "After the Thin Man", "writer": "Frances Goodrich", "longitude": -122.4058222, "actors": ["William Powell", "Myrna Loy", "James Stewart"], "location": "Coit Tower", "latitude": 37.8023949, "fact": "The Tower was funded by a gift bequeathed by Lillie Hitchcock Coit, a socialite who reportedly liked to chase fires. Though the tower resembles a firehose nozzle, it was not designed this way."}
{"company": "Lionsgate / Sidney Kimmel Entertainment / Lakeshore Entertainment", "director": "Lee Toland Krieger", "year": 2015, "distributor": "", "title": "Age of Adaline", "writer": "J. Mills Goodloe", "longitude": -122.4037026, "actors": ["Blake Lively", "Harrison Ford", "Ellen Burstyn"], "location": "Montgomery/Green", "latitude": 37.79731659999999, "fact": ""}
{"company": "Lionsgate / Sidney Kimmel Entertainment / Lakeshore Entertainment", "director": "Lee Toland Krieger", "year": 2015, "distributor": "", "title": "Age of Adaline", "writer": "J. Mills Goodloe", "longitude": -122.4037026, "actors": ["Blake Lively", "Harrison Ford", "Ellen Burstyn"], "location": "California @ Montgomery", "latitude": 37.79731659999999, "fact": ""}
{"company": "Lionsgate / Sidney Kimmel Entertainment / Lakeshore Entertainment", "director": "Lee Toland Krieger", "year": 2015, "distributor": "", "title": "Age of Adaline", "writer": "J. Mills Goodloe", "longitude": -122.3848019, "actors": ["Blake Lively", "Harrison Ford", "Ellen Burstyn"], "location": "Pier 50- end of the pier", "latitude": 37.77389429999999, "fact": ""}
{"company": "The Essanay Film Manufacturing Company", "director": "Charles Chaplin", "year": 1915, "distributor": "General Film Company", "title": "A Jitney Elopement", "writer": "Charles Chaplin", "longitude": -122.4147242, "actors": ["Charles Chaplin"], "location": "20th and Folsom Streets", "latitude": 37.758895, "fact": ""}
{"company": "Bonanza Productions Inc.", "director": "J.J. Abrams", "year": 2012, "distributor": "Warner Bros. Television", "title": "Alcatraz", "writer": "Steven Lilien", "longitude": -122.4219451, "actors": ["Sarah Jones", "Elizabeth Sarnoff", "Bryan Wynbrandt"], "location": "Broadway from Mason to Taylor", "latitude": 37.7959341, "fact": ""}
{"company": "Bonanza Productions Inc.", "director": "J.J. Abrams", "year": 2012, "distributor": "Warner Bros. Television", "title": "Alcatraz", "writer": "Steven Lilien", "longitude": -122.424127, "actors": ["Sarah Jones", "Elizabeth Sarnoff", "Bryan Wynbrandt"], "location": "Filbert St. from Jones to Mason", "latitude": 37.7994987, "fact": ""}
{"company": "Bonanza Productions Inc.", "director": "J.J. Abrams", "year": 2012, "distributor": "Warner Bros. Television", "title": "Alcatraz", "writer": "Steven Lilien", "longitude": -122.4256168, "actors": ["Sarah Jones", "Elizabeth Sarnoff", "Bryan Wynbrandt"], "location": "Chestnut St. from Larkin to Columbus", "latitude": 37.80217, "fact": ""}
{"company": "Bonanza Productions Inc.", "director": "J.J. Abrams", "year": 2012, "distributor": "Warner Bros. Television", "title": "Alcatraz", "writer": "Steven Lilien", "longitude": -122.4265852, "actors": ["Sarah Jones", "Elizabeth Sarnoff", "Bryan Wynbrandt"], "location": "Francisco St from Larkin to Polk", "latitude": 37.8030019, "fact": ""}
{"company": "Bonanza Productions Inc.", "director": "J.J. Abrams", "year": 2012, "distributor": "Warner Bros. Television", "title": "Alcatraz", "writer": "Steven Lilien", "longitude": -122.4133919, "actors": ["Sarah Jones", "Elizabeth Sarnoff", "Bryan Wynbrandt"], "location": "Taylor St. from Broadway to Filbert", "latitude": 37.7960949, "fact": ""}
{"company": "Twentieth Century Fox Film Corporation", "director": "Henry King", "year": 1938, "distributor": "Twentieth Century Fox Film Corporation", "title": "Alexander's Ragtime Band", "writer": "Kathryn Scola", "longitude": -122.5139647, "actors": ["Tyrone Power", "Alice Faye"], "location": "Cliff House (1090 Point Lobos Avenue)", "latitude": 37.7785674, "fact": "In 1887, the Cliff House was severely damaged when the schooner Parallel, abandoned and loaded with dynamite, ran aground on the rocks below."}
{"company": "Twentieth Century Fox Film Corporation", "director": "Henry King", "year": 1938, "distributor": "Twentieth Century Fox Film Corporation", "title": "Alexander's Ragtime Band", "writer": "Kathryn Scola", "longitude": -122.4100354, "actors": ["Tyrone Power", "Alice Faye"], "location": "Fairmont Hotel (950 Mason Street, Nob Hill)", "latitude": 37.7924959, "fact": "In 1945 the Fairmont hosted the United Nations Conference on International Organization as delegates arrived to draft a charter for the organization. The U.S. Secretary of State, Edward Stettinius drafted the charter in the hotel's Garden Room."}
{"company": "Twentieth Century Fox Film Corporation", "director": "Henry King", "year": 1938, "distributor": "Twentieth Century Fox Film Corporation", "title": "Alexander's Ragtime Band", "writer": "Kathryn Scola", "longitude": -122.3739843, "actors": ["Tyrone Power", "Alice Faye"], "location": "San Francisco Bay", "latitude": 37.8017005, "fact": ""}
{"company": "Twentieth Century Fox Film Corp.", "director": "Joseph L. Mankiewicz", "year": 1950, "distributor": "Twentieth Century Fox Film Corp.", "title": "All About Eve", "writer": "Joseph L. Mankiewicz", "longitude": -122.4106277, "actors": ["Bette Davis", "Anne Baxter"], "location": "Curran Theater (445 Geary Street)", "latitude": 37.7868283, "fact": "Called the Shubert Theatre in the film. "}
{"company": "Sutro Films LLC", "director": "Zachary Shedd", "year": 2015, "distributor": "", "title": "Americana", "writer": "Zachary Shedd", "longitude": -122.4541277, "actors": ["Kelli Garner", "Jack Davenport", "Peter Coyote"], "location": "Jackson St. at Spruce", "latitude": 37.7899908, "fact": ""}
{"company": "Sutro Films LLC", "director": "Zachary Shedd", "year": 2015, "distributor": "", "title": "Americana", "writer": "Zachary Shedd", "longitude": -122.4115793, "actors": ["Kelli Garner", "Jack Davenport", "Peter Coyote"], "location": "20th St and Illinois/Faxon St. and Kenwood/Glenbrook at Mt. Springs", "latitude": 37.7590895, "fact": ""}
{"company": "Sutro Films LLC", "director": "Zachary Shedd", "year": 2015, "distributor": "", "title": "Americana", "writer": "Zachary Shedd", "longitude": -122.4696664, "actors": ["Kelli Garner", "Jack Davenport", "Peter Coyote"], "location": "St. Francis Episcopal Church (399 San Fernando Way)", "latitude": 37.7305535, "fact": ""}
{"company": "Sutro Films LLC", "director": "Zachary Shedd", "year": 2015, "distributor": "", "title": "Americana", "writer": "Zachary Shedd", "longitude": -122.4063871, "actors": ["Kelli Garner", "Jack Davenport", "Peter Coyote"], "location": "Romolo Place @ Fresno St.", "latitude": 37.7986041, "fact": ""}
{"company": "Sutro Films LLC", "director": "Zachary Shedd", "year": 2015, "distributor": "", "title": "Americana", "writer": "Zachary Shedd", "longitude": -122.448053, "actors": ["Kelli Garner", "Jack Davenport", "Peter Coyote"], "location": "Palace of Fine Arts", "latitude": 37.801456, "fact": ""}
{"company": "Sutro Films LLC", "director": "Zachary Shedd", "year": 2015, "distributor": "", "title": "Americana", "writer": "Zachary Shedd", "longitude": -122.4195599, "actors": ["Kelli Garner", "Jack Davenport", "Peter Coyote"], "location": "John Shelley Drive John McLaren Park", "latitude": 37.7195069, "fact": ""}
{"company": "Sutro Films LLC", "director": "Zachary Shedd", "year": 2015, "distributor": "", "title": "Americana", "writer": "Zachary Shedd", "longitude": -122.370648, "actors": ["Kelli Garner", "Jack Davenport", "Peter Coyote"], "location": "Treasure Island", "latitude": 37.8235515, "fact": ""}
{"company": "Sutro Films LLC", "director": "Zachary Shedd", "year": 2015, "distributor": "", "title": "Americana", "writer": "Zachary Shedd", "longitude": -122.411698, "actors": ["Kelli Garner", "Jack Davenport", "Peter Coyote"], "location": "The San Francisco School (300 Gavin St.)", "latitude": 37.73278, "fact": ""}
{"company": "Sutro Films LLC", "director": "Zachary Shedd", "year": 2015, "distributor": "", "title": "Americana", "writer": "Zachary Shedd", "longitude": -122.4543956, "actors": ["Kelli Garner", "Jack Davenport", "Peter Coyote"], "location": "33 Spruce St", "latitude": 37.790308, "fact": ""}
{"company": "Sutro Films LLC", "director": "Zachary Shedd", "year": 2015, "distributor": "", "title": "Americana", "writer": "Zachary Shedd", "longitude": -122.4034273, "actors": ["Kelli Garner", "Jack Davenport", "Peter Coyote"], "location": "Coi Restaurant (373 Broadway)", "latitude": 37.7980647, "fact": ""}
{"company": "Sutro Films LLC", "director": "Zachary Shedd", "year": 2015, "distributor": "", "title": "Americana", "writer": "Zachary Shedd", "longitude": -122.4191801, "actors": ["Kelli Garner", "Jack Davenport", "Peter Coyote"], "location": "Foreign Cinema (2534 Mission)", "latitude": 37.7564149, "fact": ""}
{"company": "Sutro Films LLC", "director": "Zachary Shedd", "year": 2015, "distributor": "", "title": "Americana", "writer": "Zachary Shedd", "longitude": -122.4133908, "actors": ["Kelli Garner", "Jack Davenport", "Peter Coyote"], "location": "Bernal Heights Park", "latitude": 37.7429227, "fact": ""}
{"company": "Sutro Films LLC", "director": "Zachary Shedd", "year": 2015, "distributor": "", "title": "Americana", "writer": "Zachary Shedd", "longitude": -122.434653, "actors": ["Kelli Garner", "Jack Davenport", "Peter Coyote"], "location": "679 Madrid St", "latitude": 37.718722, "fact": ""}
{"company": "Sutro Films LLC", "director": "Zachary Shedd", "year": 2015, "distributor": "", "title": "Americana", "writer": "Zachary Shedd", "longitude": -122.4224081, "actors": ["Kelli Garner", "Jack Davenport", "Peter Coyote"], "location": "Roxie Theater (3117 16th St.)", "latitude": 37.7647103, "fact": ""}
{"company": "Sutro Films LLC", "director": "Zachary Shedd", "year": 2015, "distributor": "", "title": "Americana", "writer": "Zachary Shedd", "longitude": -122.401621, "actors": ["Kelli Garner", "Jack Davenport", "Peter Coyote"], "location": "Variety Preview Room (582 Market St.)", "latitude": 37.7894639, "fact": ""}
{"company": "Sutro Films LLC", "director": "Zachary Shedd", "year": 2015, "distributor": "", "title": "Americana", "writer": "Zachary Shedd", "longitude": -122.448797, "actors": ["Kelli Garner", "Jack Davenport", "Peter Coyote"], "location": "3232 Jackson Ave.", "latitude": 37.790931, "fact": ""}
{"company": "Universal Pictures", "director": "George Lucas", "year": 1973, "distributor": "Universal Pictures'", "title": "American Graffiti", "writer": "George Lucas", "longitude": -122.4186587, "actors": ["Richard Dreyfuss"], "location": "Mel's Drive-In (Corner of Van Ness & Mission Street, Mission District)", "latitude": 37.7728116, "fact": "This restaurant location was demolished; however another Mel's was reopened in 1986 on 3355 Geary Blvd. "}
{"company": "Universal Pictures", "director": "George Lucas", "year": 1973, "distributor": "Universal Pictures'", "title": "American Graffiti", "writer": "George Lucas", "longitude": -122.4548989, "actors": ["Richard Dreyfuss"], "location": "3355 Geary Blvd.", "latitude": 37.7811314, "fact": ""}
{"company": "Liberty Film", "director": "Lina Wertmuller", "year": 1978, "distributor": "Warner Bros. Pictures", "title": "A Night Full of Rain", "writer": "Lina Wertmuller", "longitude": -122.4100354, "actors": ["Candice Bergen", "Giancarlo Gianni"], "location": "Fairmont Hotel (950 Mason Street, Nob Hill)", "latitude": 37.7924959, "fact": "In 1945 the Fairmont hosted the United Nations Conference on International Organization as delegates arrived to draft a charter for the organization. The U.S. Secretary of State, Edward Stettinius drafted the charter in the hotel's Garden Room."}
{"company": "Liberty Film", "director": "Lina Wertmuller", "year": 1978, "distributor": "Warner Bros. Pictures", "title": "A Night Full of Rain", "writer": "Lina Wertmuller", "longitude": -122.4103311, "actors": ["Candice Bergen", "Giancarlo Gianni"], "location": "Broadway (North Beach)", "latitude": 37.8060532, "fact": ""}
{"company": "Liberty Film", "director": "Lina Wertmuller", "year": 1978, "distributor": "Warner Bros. Pictures", "title": "A Night Full of Rain", "writer": "Lina Wertmuller", "longitude": -122.4198529, "actors": ["Candice Bergen", "Giancarlo Gianni"], "location": "San Francisco Chronicle (901 Mission Street at 15th Street)", "latitude": 37.7666711, "fact": "The San Francisco Zodiac Killer of the late 1960s sent his notes and letters to the Chronicle's offices."}
{"company": "Liberty Film", "director": "Lina Wertmuller", "year": 1978, "distributor": "Warner Bros. Pictures", "title": "A Night Full of Rain", "writer": "Lina Wertmuller", "longitude": -122.3924235, "actors": ["Candice Bergen", "Giancarlo Gianni"], "location": "Embarcadero Freeway", "latitude": 37.7560529, "fact": "Embarcadero Freeway, which was featured in the film was demolished in 1989 because of structural damage from the 1989 Loma Prieta Earthquake)"}
{"company": "PYM Particles Productions, LLC", "director": "Peyton Reed", "year": 2015, "distributor": "Walt Disney Studios Motion Pictures", "title": "Ant-Man", "writer": "Gabriel Ferrari ", "longitude": -122.4196662, "actors": ["Michael Douglas", "Paul Rudd"], "location": "Lombard at Hyde", "latitude": 37.8020032, "fact": ""}
{"company": "PYM Particles Productions, LLC", "director": "Peyton Reed", "year": 2015, "distributor": "Walt Disney Studios Motion Pictures", "title": "Ant-Man", "writer": "Gabriel Ferrari ", "longitude": -122.4055358, "actors": ["Michael Douglas", "Paul Rudd"], "location": "Intersection of Broadway at Kearney", "latitude": 37.7980275, "fact": "Driving shots"}
{"company": "PYM Particles Productions, LLC", "director": "Peyton Reed", "year": 2015, "distributor": "Walt Disney Studios Motion Pictures", "title": "Ant-Man", "writer": "Gabriel Ferrari ", "longitude": -122.4219451, "actors": ["Michael Douglas", "Paul Rudd"], "location": "Broadway between Powell and Davis", "latitude": 37.7959341, "fact": "Driving shots"}
{"company": "PYM Particles Productions, LLC", "director": "Peyton Reed", "year": 2015, "distributor": "Walt Disney Studios Motion Pictures", "title": "Ant-Man", "writer": "Gabriel Ferrari ", "longitude": -122.4206999, "actors": ["Michael Douglas", "Paul Rudd"], "location": "Intersection of California at Polk", "latitude": 37.7905947, "fact": "Driving shots"}
{"company": "PYM Particles Productions, LLC", "director": "Peyton Reed", "year": 2015, "distributor": "Walt Disney Studios Motion Pictures", "title": "Ant-Man", "writer": "Gabriel Ferrari ", "longitude": -77.0368707, "actors": ["Michael Douglas", "Paul Rudd"], "location": "Columbus between Bay and Washington", "latitude": 38.9071923, "fact": "Driving shots"}
{"company": "PYM Particles Productions, LLC", "director": "Peyton Reed", "year": 2015, "distributor": "Walt Disney Studios Motion Pictures", "title": "Ant-Man", "writer": "Gabriel Ferrari ", "longitude": -122.4436959, "actors": ["Michael Douglas", "Paul Rudd"], "location": "601 Buena Vista Ave West at Java St.", "latitude": 37.7669682, "fact": ""}
{"company": "PYM Particles Productions, LLC", "director": "Peyton Reed", "year": 2015, "distributor": "Walt Disney Studios Motion Pictures", "title": "Ant-Man", "writer": "Gabriel Ferrari ", "longitude": -122.3710896, "actors": ["Michael Douglas", "Paul Rudd"], "location": "Treasure Island, Building #1, Ave of the Palms", "latitude": 37.8171039, "fact": "Aerial and exterior shots"}
{"company": "PYM Particles Productions, LLC", "director": "Peyton Reed", "year": 2015, "distributor": "Walt Disney Studios Motion Pictures", "title": "Ant-Man", "writer": "Gabriel Ferrari ", "longitude": -122.4128063, "actors": ["Michael Douglas", "Paul Rudd"], "location": "420 Jones St. at Ellis St.", "latitude": 37.7848915, "fact": ""}
{"company": "Paradigm Studio", "director": "John Jacobsen", "year": 1998, "distributor": "Ardustry Home Entertainment", "title": "Around the Fire", "writer": "John Comerford", "longitude": -122.510734, "actors": ["Tara Reid"], "location": "Ocean Beach", "latitude": 37.75939210000001, "fact": "On Jan. 25, 1878, the King Philip ship crashed in Ocean Beach. Occasionally, the ship's wreckage may be found on the beach-- most recently it was seen in 2007. "}
{"company": "Paramount Pictures", "director": "Keith Samples", "year": 1997, "distributor": "Paramount Pictures", "title": "A Smile Like Yours", "writer": "Keith Samples & Kevin Meyer", "longitude": -122.3973319, "actors": ["Greg Kinnear", "Lauren Holly", "Joan Cusack"], "location": "75 California Street", "latitude": 37.7935486, "fact": ""}
{"company": "Paramount Pictures", "director": "Keith Samples", "year": 1997, "distributor": "Paramount Pictures", "title": "A Smile Like Yours ", "writer": "Keith Samples & Kevin Meyer", "longitude": -122.4133435, "actors": ["Greg Kinnear", "Lauren Holly", "Joan Cusack"], "location": "Grace Cathedral Episcopal Church (1100 California Street)", "latitude": 37.7918345, "fact": "Grace Cathedral Episcopal Church is the West Coast's largest Episcopalian cathedral."}
{"company": "Paramount Pictures", "director": "Keith Samples", "year": 1997, "distributor": "Paramount Pictures", "title": "A Smile Like Yours ", "writer": "Keith Samples & Kevin Meyer", "longitude": -122.3886044, "actors": ["Greg Kinnear", "Lauren Holly", "Joan Cusack"], "location": "Hills Brothers Plaza (Embarcadero at Harrison Street)", "latitude": 37.78952400000001, "fact": ""}
{"company": "Paramount Pictures", "director": "Keith Samples", "year": 1997, "distributor": "Paramount Pictures", "title": "A Smile Like Yours ", "writer": "Keith Samples & Kevin Meyer", "longitude": -122.3789554, "actors": ["Greg Kinnear", "Lauren Holly", "Joan Cusack"], "location": "San Francisco International Airport", "latitude": 37.6213129, "fact": "SFO has a museum dedicated to aviation history. "}
{"company": "Four Square Productions", "director": "John DeBello", "year": 1978, "distributor": "NAI Entertainment", "title": "Attack of the Killer Tomatoes", "writer": "John DeBello", "longitude": -122.4179707, "actors": ["David Miller"], "location": "Hyde Street Cable Car", "latitude": 37.7937507, "fact": "SF Cable Cars are the only moving National Historical Landmark."}
{"company": "Metro-Goldwyn Mayer", "director": "John Glen", "year": 1985, "distributor": "MGM/UA Entertainment Company", "title": "A View to a Kill", "writer": "Richard Maibaum", "longitude": -122.422592, "actors": ["Roger Moore", "Christopher Walken"], "location": "Van Ness Avenue", "latitude": 37.7913102, "fact": ""}
{"company": "Metro-Goldwyn Mayer", "director": "John Glen", "year": 1985, "distributor": "MGM/UA Entertainment Company", "title": "A View to a Kill", "writer": "Richard Maibaum", "longitude": -122.3910984, "actors": ["Roger Moore", "Christopher Walken"], "location": "Burger Island (901 3rd Street, China Basin)", "latitude": 37.7775525, "fact": ""}
{"company": "Metro-Goldwyn Mayer", "director": "John Glen", "year": 1985, "distributor": "MGM/UA Entertainment Company", "title": "A View to a Kill", "writer": "Richard Maibaum", "longitude": -122.4077914, "actors": ["Roger Moore", "Christopher Walken"], "location": "Chinatown", "latitude": 37.7941378, "fact": "First established in the mid-19th Century, SF's Chinatown is the oldest and largest Chinatown in the US."}
{"company": "Metro-Goldwyn Mayer", "director": "John Glen", "year": 1985, "distributor": "MGM/UA Entertainment Company", "title": "A View to a Kill", "writer": "Richard Maibaum", "longitude": -122.356952, "actors": ["Roger Moore", "Christopher Walken"], "location": "City Hall", "latitude": 37.9137666, "fact": "The dome of SF's City Hall is almost a foot taller than that of the US Capitol Building. In 1954, Joe DiMaggio and Marilyn Monroe married at the Beaux Arts-style building."}
{"company": "Metro-Goldwyn Mayer", "director": "John Glen", "year": 1985, "distributor": "MGM/UA Entertainment Company", "title": "A View to a Kill", "writer": "Richard Maibaum", "longitude": -122.400869, "actors": ["Roger Moore", "Christopher Walken"], "location": "Potrero Hill", "latitude": 37.7604929, "fact": "The most crooked street in San Francisco is actually Potrero Hill's Vermont Street between 20th St & 22nd St."}
{"company": "Metro-Goldwyn Mayer", "director": "John Glen", "year": 1985, "distributor": "MGM/UA Entertainment Company", "title": "A View to a Kill", "writer": "Richard Maibaum", "longitude": -122.3924235, "actors": ["Roger Moore", "Christopher Walken"], "location": "Embarcadero Freeway", "latitude": 37.7560529, "fact": "Embarcadero Freeway, which was featured in the film, was demolished in 1989 because of structural damage from the 1989 Loma Prieta Earthquake)"}
{"company": "Metro-Goldwyn Mayer", "director": "John Glen", "year": 1985, "distributor": "MGM/UA Entertainment Company", "title": "A View to a Kill", "writer": "Richard Maibaum", "longitude": -122.3934134, "actors": ["Roger Moore", "Christopher Walken"], "location": "Lefty O' Doul Drawbridge/ 3rd Street Bridge (3rd Street, China Basin)", "latitude": 37.7793668, "fact": "This is SF's only drawbridge, and was named after Francis Joseph \"Lefty\" O'Doul, a local baseball hero."}
{"company": "Metro-Goldwyn Mayer", "director": "John Glen", "year": 1985, "distributor": "MGM/UA Entertainment Company", "title": "A View to a Kill", "writer": "Richard Maibaum", "longitude": -122.3789554, "actors": ["Roger Moore", "Christopher Walken"], "location": "Port of San Francisco ", "latitude": 37.6213129, "fact": ""}
{"company": "Metro-Goldwyn Mayer", "director": "John Glen", "year": 1985, "distributor": "MGM/UA Entertainment Company", "title": "A View to a Kill", "writer": "Richard Maibaum", "longitude": -122.356952, "actors": ["Roger Moore", "Christopher Walken"], "location": "City Hall", "latitude": 37.9137666, "fact": "The dome of SF's City Hall is almost a foot taller than that of the US Capitol Building. In 1954, Joe DiMaggio and Marilyn Monroe married at the Beaux Arts-style building."}
{"company": "Metro-Goldwyn Mayer", "director": "John Glen", "year": 1985, "distributor": "MGM/UA Entertainment Company", "title": "A View to a Kill", "writer": "Richard Maibaum", "longitude": -122.4177434, "actors": ["Roger Moore", "Christopher Walken"], "location": "Taylor and Jefferson Streets (Fisherman's Wharf)", "latitude": 37.8079996, "fact": ""}
{"company": "Carolco Pictures", "director": "Paul Verhoeven", "year": 1992, "distributor": "TriStar Pictures", "title": "Basic Instinct", "writer": "Joe Eszterhas", "longitude": -122.3975826, "actors": ["Michael Douglas", "Sharon Stone", "George Dzundza"], "location": "Transbay Terminal (Mission Street at 1st Street)", "latitude": 37.7897863, "fact": "Built in 1939, the Terminal linked San Francisco, the East Bay, and Sacramento by rail for the first time."}
{"company": "Carolco Pictures", "director": "Paul Verhoeven", "year": 1992, "distributor": "TriStar Pictures", "title": "Basic Instinct", "writer": "Joe Eszterhas", "longitude": -122.4058736, "actors": ["Michael Douglas", "Sharon Stone", "George Dzundza"], "location": "Tosca Caf\u00e9 (242 Columbus Avenue)", "latitude": 37.7976266, "fact": ""}
{"company": "Carolco Pictures", "director": "Paul Verhoeven", "year": 1992, "distributor": "TriStar Pictures", "title": "Basic Instinct", "writer": "Joe Eszterhas", "longitude": -122.408527, "actors": ["Michael Douglas", "Sharon Stone", "George Dzundza"], "location": "Raw Hide II (280 Seventh Street)", "latitude": 37.776817, "fact": ""}
{"company": "Carolco Pictures", "director": "Paul Verhoeven", "year": 1992, "distributor": "TriStar Pictures", "title": "Basic Instinct", "writer": "Joe Eszterhas", "longitude": -122.3976732, "actors": ["Michael Douglas", "Sharon Stone", "George Dzundza"], "location": "Pier 7 (The Embarcadero)", "latitude": 37.7992627, "fact": ""}
{"company": "Carolco Pictures", "director": "Paul Verhoeven", "year": 1992, "distributor": "TriStar Pictures", "title": "Basic Instinct", "writer": "Joe Eszterhas", "longitude": -122.4056674, "actors": ["Michael Douglas", "Sharon Stone", "George Dzundza"], "location": "Kearney Street (Telegraph Hill)", "latitude": 37.8013407, "fact": ""}
{"company": "Carolco Pictures", "director": "Paul Verhoeven", "year": 1992, "distributor": "TriStar Pictures", "title": "Basic Instinct", "writer": "Joe Eszterhas", "longitude": -122.404191, "actors": ["Michael Douglas", "Sharon Stone", "George Dzundza"], "location": "Hall of Justice (850 Bryant Street)", "latitude": 37.7753903, "fact": ""}
{"company": "Carolco Pictures", "director": "Paul Verhoeven", "year": 1992, "distributor": "TriStar Pictures", "title": "Basic Instinct", "writer": "Joe Eszterhas", "longitude": -122.445704, "actors": ["Michael Douglas", "Sharon Stone", "George Dzundza"], "location": "2930 Vallejo Street", "latitude": 37.794164, "fact": ""}
{"company": "Carolco Pictures", "director": "Paul Verhoeven", "year": 1992, "distributor": "TriStar Pictures", "title": "Basic Instinct", "writer": "Joe Eszterhas", "longitude": -122.4077914, "actors": ["Michael Douglas", "Sharon Stone", "George Dzundza"], "location": "Chinatown", "latitude": 37.7941378, "fact": "First established in the mid-19th Century, SF's Chinatown is the oldest and largest Chinatown in the US."}
{"company": "Carolco Pictures", "director": "Paul Verhoeven", "year": 1992, "distributor": "TriStar Pictures", "title": "Basic Instinct", "writer": "Joe Eszterhas", "longitude": -122.4077914, "actors": ["Michael Douglas", "Sharon Stone", "George Dzundza"], "location": "Gibb Street (Chinatown)", "latitude": 37.7941378, "fact": ""}
{"company": "Carolco Pictures", "director": "Paul Verhoeven", "year": 1992, "distributor": "TriStar Pictures", "title": "Basic Instinct", "writer": "Joe Eszterhas", "longitude": -122.4021792, "actors": ["Michael Douglas", "Sharon Stone", "George Dzundza"], "location": "1158-70 Montgomery Street", "latitude": 37.78989410000001, "fact": ""}
{"company": "Carolco Pictures", "director": "Paul Verhoeven", "year": 1992, "distributor": "TriStar Pictures", "title": "Basic Instinct", "writer": "Joe Eszterhas", "longitude": -122.4320444, "actors": ["Michael Douglas", "Sharon Stone", "George Dzundza"], "location": "2104 Broadway", "latitude": 37.7946709, "fact": ""}
{"company": "Twentieth Century Fox Film Corp.", "director": "Harold Ramis", "year": 2000, "distributor": "Twentieth Century Fox Film Corp.", "title": "Bedazzled", "writer": "Harold Ramis", "longitude": -122.4192906, "actors": ["Brendan Fraser", "Elizabeth Hurley"], "location": "1155 Filbert Street at Hyde", "latitude": 37.8001442, "fact": ""}
{"company": "Twentieth Century Fox Film Corp.", "director": "Harold Ramis", "year": 2000, "distributor": "Twentieth Century Fox Film Corp.", "title": "Bedazzled", "writer": "Harold Ramis", "longitude": -122.4019967, "actors": ["Brendan Fraser", "Elizabeth Hurley"], "location": "Montgomery & Market Streets", "latitude": 37.7888201, "fact": ""}
{"company": "Twentieth Century Fox Film Corp.", "director": "Harold Ramis", "year": 2000, "distributor": "Twentieth Century Fox Film Corp.", "title": "Bedazzled", "writer": "Harold Ramis", "longitude": -122.356952, "actors": ["Brendan Fraser", "Elizabeth Hurley"], "location": "City Hall", "latitude": 37.9137666, "fact": "The dome of SF's City Hall is almost a foot taller than that of the US Capitol Building. In 1954, Joe DiMaggio and Marilyn Monroe married at the Beaux Arts-style building."}
{"company": "1492 Pictures", "director": "Chris Columbus", "year": 1999, "distributor": "Buena Vista Pictures", "title": "Bicentennial Man", "writer": "Nicholas Kazan", "longitude": -122.356952, "actors": ["Robin Williams"], "location": "City Hall", "latitude": 37.9137666, "fact": "The dome of SF's City Hall is almost a foot taller than that of the US Capitol Building. In 1954, Joe DiMaggio and Marilyn Monroe married at the Beaux Arts-style building."}
{"company": "1492 Pictures", "director": "Chris Columbus", "year": 1999, "distributor": "Buena Vista Pictures", "title": "Bicentennial Man", "writer": "Nicholas Kazan", "longitude": -122.370648, "actors": ["Robin Williams"], "location": "Treasure Island", "latitude": 37.8235515, "fact": "An artificial island, Treasure Island was created for the 1939 Golden Gate International Exposition, and is named after the novel by Robert Louis Stevenson, a one-time San Francisco resident."}
{"company": "1492 Pictures", "director": "Chris Columbus", "year": 1999, "distributor": "Buena Vista Pictures", "title": "Bicentennial Man", "writer": "Nicholas Kazan", "longitude": -122.4245247, "actors": ["Robin Williams"], "location": "Postcard Row, Alamo Square, Hayes Valley", "latitude": 37.7759073, "fact": "The 6 Victorian homes across from Alamo Square Park are among the few Victorians to survive the Great Fire."}
{"company": "1492 Pictures", "director": "Chris Columbus", "year": 1999, "distributor": "Buena Vista Pictures", "title": "Bicentennial Man", "writer": "Nicholas Kazan", "longitude": -122.4133435, "actors": ["Robin Williams"], "location": "Grace Cathedral Episcopal Church (1100 California Street)", "latitude": 37.7918345, "fact": "Grace Cathedral Episcopal Church is the West Coast's largest Episcopalian cathedral."}
{"company": "Blink & Wink Productions", "director": "Tim Burton", "year": 2014, "distributor": "Weinstein Company", "title": "Big Eyes", "writer": "Scott Alexander", "longitude": -122.4075668, "actors": ["Amy Adams", "Krysten Ritter", "Christoph Waltz"], "location": "Nobles Alley", "latitude": 37.8009686, "fact": ""}
{"company": "Blink & Wink Productions", "director": "Tim Burton", "year": 2014, "distributor": "Weinstein Company", "title": "Big Eyes", "writer": "Scott Alexander", "longitude": -122.448053, "actors": ["Amy Adams", "Krysten Ritter", "Christoph Waltz"], "location": "Palace of Fine Arts", "latitude": 37.801456, "fact": ""}
{"company": "Blink & Wink Productions", "director": "Tim Burton", "year": 2014, "distributor": "Weinstein Company", "title": "Big Eyes", "writer": "Scott Alexander", "longitude": -122.4178041, "actors": ["Amy Adams", "Krysten Ritter", "Christoph Waltz"], "location": "1101 Filbert St. ", "latitude": 37.8001558, "fact": ""}
{"company": "Blink & Wink Productions", "director": "Tim Burton", "year": 2014, "distributor": "Weinstein Company", "title": "Big Eyes", "writer": "Scott Alexander", "longitude": -122.4074187, "actors": ["Amy Adams", "Krysten Ritter", "Christoph Waltz"], "location": "Green St. & Grant Ave.", "latitude": 37.7997174, "fact": ""}
{"company": "Blink & Wink Productions", "director": "Tim Burton", "year": 2014, "distributor": "Weinstein Company", "title": "Big Eyes", "writer": "Scott Alexander", "longitude": -122.4176339, "actors": ["Amy Adams", "Krysten Ritter", "Christoph Waltz"], "location": "Filbert St. & Leavenworth", "latitude": 37.8003487, "fact": ""}
{"company": "Blink & Wink Productions", "director": "Tim Burton", "year": 2014, "distributor": "Weinstein Company", "title": "Big Eyes", "writer": "Scott Alexander", "longitude": -122.4057802, "actors": ["Amy Adams", "Krysten Ritter", "Christoph Waltz"], "location": "Pine St. & Grant", "latitude": 37.7915231, "fact": ""}
{"company": "3311 Productions", "director": "Michael Polish", "year": 2013, "distributor": "", "title": "Big Sur", "writer": "Jack Kerouac & Michael Polish", "longitude": -122.4058736, "actors": ["Josh Lucas", "Kate Bosworth", "Stana Katic"], "location": "Tosca Caf\u00e9 (242 Columbus Avenue, North Beach)", "latitude": 37.7976266, "fact": ""}
{"company": "Norma Productions", "director": "John Frankenheimer", "year": 1962, "distributor": "United Artists", "title": "Birdman of Alcatraz", "writer": "Guy Trosper", "longitude": -122.4229555, "actors": ["Burt Lancaster", "Karl Maden"], "location": "Alcatraz Island", "latitude": 37.8269775, "fact": "Alcatraz Island was a military fort before it became a prison."}
{"company": "Norma Productions", "director": "John Frankenheimer", "year": 1962, "distributor": "United Artists", "title": "Birdman of Alcatraz", "writer": "Guy Trosper", "longitude": -122.3980153, "actors": ["Burt Lancaster", "Karl Maden"], "location": "Pier 43 1/2", "latitude": 37.7999788, "fact": ""}
{"company": "Perdido Productions", "director": "Woody Allen", "year": 2013, "distributor": "Sony Pictures Classics", "title": "Blue Jasmine", "writer": "Woody Allen", "longitude": -122.4791515, "actors": ["Cate Blanchett", "Alec Baldwin", "Peter Sarsgaard"], "location": "5546 Geary Ave", "latitude": 37.780586, "fact": ""}
{"company": "Perdido Productions", "director": "Woody Allen", "year": 2013, "distributor": "Sony Pictures Classics", "title": "Blue Jasmine", "writer": "Woody Allen", "longitude": -122.4150124, "actors": ["Cate Blanchett", "Alec Baldwin", "Peter Sarsgaard"], "location": "Jones & Pacific", "latitude": 37.7958854, "fact": ""}
{"company": "Perdido Productions", "director": "Woody Allen", "year": 2013, "distributor": "Sony Pictures Classics", "title": "Blue Jasmine", "writer": "Woody Allen", "longitude": -122.4413036, "actors": ["Cate Blanchett", "Alec Baldwin", "Peter Sarsgaard"], "location": "Pacific & Divisadero", "latitude": 37.7925208, "fact": ""}
{"company": "Perdido Productions", "director": "Woody Allen", "year": 2013, "distributor": "Sony Pictures Classics", "title": "Blue Jasmine", "writer": "Woody Allen", "longitude": -122.4196662, "actors": ["Cate Blanchett", "Alec Baldwin", "Peter Sarsgaard"], "location": "Lombard & Hyde", "latitude": 37.8020032, "fact": ""}
{"company": "Perdido Productions", "director": "Woody Allen", "year": 2013, "distributor": "Sony Pictures Classics", "title": "Blue Jasmine", "writer": "Woody Allen", "longitude": -122.44471, "actors": ["Cate Blanchett", "Alec Baldwin", "Peter Sarsgaard"], "location": "2898 Broadway", "latitude": 37.793335, "fact": ""}
{"company": "Perdido Productions", "director": "Woody Allen", "year": 2013, "distributor": "Sony Pictures Classics", "title": "Blue Jasmine", "writer": "Woody Allen", "longitude": -122.4391137, "actors": ["Cate Blanchett", "Alec Baldwin", "Peter Sarsgaard"], "location": "Marina Green", "latitude": 37.8066235, "fact": ""}
{"company": "Perdido Productions", "director": "Woody Allen", "year": 2013, "distributor": "Sony Pictures Classics", "title": "Blue Jasmine", "writer": "Woody Allen", "longitude": -122.4410096, "actors": ["Cate Blanchett", "Alec Baldwin", "Peter Sarsgaard"], "location": "Marina Blvd from Laguna to Baker", "latitude": 37.8059743, "fact": ""}
{"company": "Perdido Productions", "director": "Woody Allen", "year": 2013, "distributor": "Sony Pictures Classics", "title": "Blue Jasmine", "writer": "Woody Allen", "longitude": -122.466499, "actors": ["Cate Blanchett", "Alec Baldwin", "Peter Sarsgaard"], "location": "330 Santa Clara Ave.", "latitude": 37.734209, "fact": ""}
{"company": "Perdido Productions", "director": "Woody Allen", "year": 2013, "distributor": "Sony Pictures Classics", "title": "Blue Jasmine", "writer": "Woody Allen", "longitude": -122.4053893, "actors": ["Cate Blanchett", "Alec Baldwin", "Peter Sarsgaard"], "location": "200 Post St. ", "latitude": 37.788804, "fact": ""}
{"company": "Perdido Productions", "director": "Woody Allen", "year": 2013, "distributor": "Sony Pictures Classics", "title": "Blue Jasmine", "writer": "Woody Allen", "longitude": -122.507258, "actors": ["Cate Blanchett", "Alec Baldwin", "Peter Sarsgaard"], "location": "2179 48th Ave", "latitude": 37.745553, "fact": ""}
{"company": "Perdido Productions", "director": "Woody Allen", "year": 2013, "distributor": "Sony Pictures Classics", "title": "Blue Jasmine", "writer": "Woody Allen", "longitude": -122.4176369, "actors": ["Cate Blanchett", "Alec Baldwin", "Peter Sarsgaard"], "location": "303-305 S. Van Ness", "latitude": 37.7682683, "fact": ""}
{"company": "Perdido Productions", "director": "Woody Allen", "year": 2013, "distributor": "Sony Pictures Classics", "title": "Blue Jasmine", "writer": "Woody Allen", "longitude": -122.420399, "actors": ["Cate Blanchett", "Alec Baldwin", "Peter Sarsgaard"], "location": "3563 20th St.", "latitude": 37.7584616, "fact": ""}
{"company": "Perdido Productions", "director": "Woody Allen", "year": 2013, "distributor": "Sony Pictures Classics", "title": "Blue Jasmine", "writer": "Woody Allen", "longitude": -122.4139568, "actors": ["Cate Blanchett", "Alec Baldwin", "Peter Sarsgaard"], "location": "Taylor & Green St.", "latitude": 37.7989188, "fact": ""}
{"company": "Perdido Productions", "director": "Woody Allen", "year": 2013, "distributor": "Sony Pictures Classics", "title": "Blue Jasmine", "writer": "Woody Allen", "longitude": -122.4065048, "actors": ["Cate Blanchett", "Alec Baldwin", "Peter Sarsgaard"], "location": "Grant & Washington St.", "latitude": 37.7951646, "fact": ""}
{"company": "Perdido Productions", "director": "Woody Allen", "year": 2013, "distributor": "Sony Pictures Classics", "title": "Blue Jasmine", "writer": "Woody Allen", "longitude": -122.4107026, "actors": ["Cate Blanchett", "Alec Baldwin", "Peter Sarsgaard"], "location": "2934 24th St.", "latitude": 37.7529414, "fact": ""}
{"company": "Perdido Productions", "director": "Woody Allen", "year": 2013, "distributor": "Sony Pictures Classics", "title": "Blue Jasmine", "writer": "Woody Allen", "longitude": -122.4112992, "actors": ["Cate Blanchett", "Alec Baldwin", "Peter Sarsgaard"], "location": "1138 Alabama St", "latitude": 37.75367, "fact": ""}
{"company": "Perdido Productions", "director": "Woody Allen", "year": 2013, "distributor": "Sony Pictures Classics", "title": "Blue Jasmine", "writer": "Woody Allen", "longitude": -122.3940353, "actors": ["Cate Blanchett", "Alec Baldwin", "Peter Sarsgaard"], "location": "South Park", "latitude": 37.7815501, "fact": ""}
{"company": "Perdido Productions", "director": "Woody Allen", "year": 2013, "distributor": "Sony Pictures Classics", "title": "Blue Jasmine", "writer": "Woody Allen", "longitude": -122.4179625, "actors": ["Cate Blanchett", "Alec Baldwin", "Peter Sarsgaard"], "location": "2915 16th St.", "latitude": 37.7650165, "fact": ""}
{"company": "Perdido Productions", "director": "Woody Allen", "year": 2013, "distributor": "Sony Pictures Classics", "title": "Blue Jasmine", "writer": "Woody Allen", "longitude": -122.4646626, "actors": ["Cate Blanchett", "Alec Baldwin", "Peter Sarsgaard"], "location": "790 Ulloa ", "latitude": 37.7408258, "fact": ""}
{"company": "Perdido Productions", "director": "Woody Allen", "year": 2013, "distributor": "Sony Pictures Classics", "title": "Blue Jasmine", "writer": "Woody Allen", "longitude": -122.4015231, "actors": ["Cate Blanchett", "Alec Baldwin", "Peter Sarsgaard"], "location": "2178 Palou Ave.", "latitude": 37.7406288, "fact": ""}
{"company": "Punch 21 Productions", "director": "Robert Iscove", "year": 2000, "distributor": "Dimension Films", "title": "Boys and Girls", "writer": "The Drews", "longitude": -122.4177434, "actors": ["Freddie Prinze, Jr.", "Alyson Hannigan"], "location": "Fisherman's Wharf", "latitude": 37.8079996, "fact": "Supposedly, Mikhail S. Gorbachev has said that his favorite part of visiting America was touring Fisherman's Wharf."}
{"company": "Punch 21 Productions", "director": "Robert Iscove", "year": 2000, "distributor": "Dimension Films", "title": "Boys and Girls", "writer": "The Drews", "longitude": -122.4087109, "actors": ["Freddie Prinze, Jr.", "Alyson Hannigan"], "location": "1122 Folsom Street", "latitude": 37.7764013, "fact": ""}
{"company": "Punch 21 Productions", "director": "Robert Iscove", "year": 2000, "distributor": "Dimension Films", "title": "Boys and Girls", "writer": "The Drews", "longitude": -122.3933992, "actors": ["Freddie Prinze, Jr.", "Alyson Hannigan"], "location": "Ferry Building", "latitude": 37.7910385, "fact": "Every hour and half-hour, the clock bell atop the Ferry Building chimes portions of the Westminster Quarters."}
{"company": "Punch 21 Productions", "director": "Robert Iscove", "year": 2000, "distributor": "Dimension Films", "title": "Boys and Girls", "writer": "The Drews", "longitude": -122.4058222, "actors": ["Freddie Prinze, Jr.", "Alyson Hannigan"], "location": "Coit Tower", "latitude": 37.8023949, "fact": "The Tower was funded by a gift bequeathed by Lillie Hitchcock Coit, a socialite who reportedly liked to chase fires. Though the tower resembles a firehose nozzle, it was not designed this way."}
{"company": "Punch 21 Productions", "director": "Robert Iscove", "year": 2000, "distributor": "Dimension Films", "title": "Boys and Girls", "writer": "The Drews", "longitude": -122.410261, "actors": ["Freddie Prinze, Jr.", "Alyson Hannigan"], "location": "St. Peter & Paul's Church (666 Filbert Street, Washington Square)", "latitude": 37.80159039999999, "fact": "Though Marilyn Monroe and Joe DiMaggio were not allowed to be married at the Church (DiMaggio had married his first wife at the Church but was divorced), the couple returned to the steps of the Church for photos, following their City Hall nuptials."}
{"company": "Punch 21 Productions", "director": "Robert Iscove", "year": 2000, "distributor": "Dimension Films", "title": "Boys and Girls", "writer": "The Drews", "longitude": -122.356952, "actors": ["Freddie Prinze, Jr.", "Alyson Hannigan"], "location": "City Hall", "latitude": 37.9137666, "fact": "The dome of SF's City Hall is almost a foot taller than that of the US Capitol Building. In 1954, Joe DiMaggio and Marilyn Monroe married at the Beaux Arts-style building."}
{"company": "Punch 21 Productions", "director": "Robert Iscove", "year": 2000, "distributor": "Dimension Films", "title": "Boys and Girls", "writer": "The Drews", "longitude": -122.4262114, "actors": ["Freddie Prinze, Jr.", "Alyson Hannigan"], "location": "Lombard Street", "latitude": 37.8010492, "fact": "Lombard Street is not actually the most crooked in SF. That honor goes to Potrero Hill's Vermont Street between 22nd and 23rd."}
{"company": "Punch 21 Productions", "director": "Robert Iscove", "year": 2000, "distributor": "Dimension Films", "title": "Boys and Girls", "writer": "The Drews", "longitude": -122.4077914, "actors": ["Freddie Prinze, Jr.", "Alyson Hannigan"], "location": "Chinatown", "latitude": 37.7941378, "fact": "First established in the mid-19th Century, SF's Chinatown is the oldest and largest Chinatown in the US."}
{"company": "Punch 21 Productions", "director": "Robert Iscove", "year": 2000, "distributor": "Dimension Films", "title": "Boys and Girls", "writer": "The Drews", "longitude": -122.4355687, "actors": ["Freddie Prinze, Jr.", "Alyson Hannigan"], "location": "Aquatic Park (Jefferson Street)", "latitude": 37.8057014, "fact": "Located at one end of Fisherman's Wharf, Aquatic Park was built as part of FDR's Works Progress Administration Project."}
{"company": "Punch 21 Productions", "director": "Robert Iscove", "year": 2000, "distributor": "Dimension Films", "title": "Boys and Girls", "writer": "The Drews", "longitude": -122.4229555, "actors": ["Freddie Prinze, Jr.", "Alyson Hannigan"], "location": "Alcatraz Island", "latitude": 37.8269775, "fact": "Alcatraz Island was a military fort before it became a prison."}
{"company": "Punch 21 Productions", "director": "Robert Iscove", "year": 2000, "distributor": "Dimension Films", "title": "Boys and Girls", "writer": "The Drews", "longitude": -122.4504325, "actors": ["Freddie Prinze, Jr.", "Alyson Hannigan"], "location": "628 Cole Street", "latitude": 37.769226, "fact": ""}
{"company": "RKW Films", "director": "Ryan K. Whiting", "year": 2010, "distributor": "", "title": "Broken-A Modern Love Story ", "writer": "Ryan K. Whiting", "longitude": -122.4000973, "actors": [], "location": "0-100 block Halleck Street", "latitude": 37.7937116, "fact": ""}
{"company": "RKW Films", "director": "Ryan K. Whiting", "year": 2010, "distributor": "", "title": "Broken-A Modern Love Story ", "writer": "Ryan K. Whiting", "longitude": -122.4137392, "actors": [], "location": "Ina Coolbrith Park (1700 Taylor Street)", "latitude": 37.7980459, "fact": ""}
{"company": "Warner Brothers / Seven Arts\nSeven Arts", "director": "Peter Yates", "year": 1968, "distributor": "Warner Brothers", "title": "Bullitt", "writer": "Alan R. Trustman", "longitude": -122.4195558, "actors": ["Steve McQueen", "Jacqueline Bisset", "Suzi Mandell"], "location": "Filbert & Taylor Streets (Russian Hill)", "latitude": 37.8010963, "fact": ""}
{"company": "Warner Brothers / Seven Arts\nSeven Arts", "director": "Peter Yates", "year": 1968, "distributor": "Warner Brothers", "title": "Bullitt", "writer": "Alan R. Trustman", "longitude": -122.3702611, "actors": ["Steve McQueen", "Jacqueline Bisset", "Dermot Mulroney"], "location": "Bayshore Blvd near Cesar Chavez (Bayview)", "latitude": 37.7276095, "fact": ""}
{"company": "Warner Brothers / Seven Arts\nSeven Arts", "director": "Peter Yates", "year": 1968, "distributor": "Warner Brothers", "title": "Bullitt", "writer": "Alan R. Trustman", "longitude": -122.4195558, "actors": ["Steve McQueen", "Jacqueline Bisset", "Don Harvey"], "location": "Taylor & Vallejo Streets (Russian Hill)", "latitude": 37.8010963, "fact": ""}
{"company": "Warner Brothers / Seven Arts\nSeven Arts", "director": "Peter Yates", "year": 1968, "distributor": "Warner Brothers", "title": "Bullitt", "writer": "Alan R. Trustman", "longitude": -122.4044432, "actors": ["Steve McQueen", "Jacqueline Bisset"], "location": "SF General Hospital Center (1001 Potrero Avenue, Potrero Hill)", "latitude": 37.7558047, "fact": "SF General Hospital is the only Level I Trauma Center serving San Francisco and northern San Mateo County. "}
{"company": "Warner Brothers / Seven Arts\nSeven Arts", "director": "Peter Yates", "year": 1968, "distributor": "Warner Brothers", "title": "Bullitt", "writer": "Alan R. Trustman", "longitude": -122.4042514, "actors": ["Steve McQueen", "Jacqueline Bisset"], "location": "McLaren Park (Visitacion  Valley)", "latitude": 37.7171754, "fact": "McLaren Park is the 2nd largest park in San Francisco, after Golden Gate Park."}
{"company": "Warner Brothers / Seven Arts\nSeven Arts", "director": "Peter Yates", "year": 1968, "distributor": "Warner Brothers", "title": "Bullitt", "writer": "Alan R. Trustman", "longitude": -122.4102174, "actors": ["Steve McQueen", "Jacqueline Bisset", "Liz Phair"], "location": "Mark Hopkins Hotel (999 California Street)", "latitude": 37.7914761, "fact": "The Top of the Mark lounge and restaurant at the top of the hotel was formerly a penthouse suite."}
{"company": "Warner Brothers / Seven Arts\nSeven Arts", "director": "Peter Yates", "year": 1968, "distributor": "Warner Brothers", "title": "Bullitt", "writer": "Alan R. Trustman", "longitude": -122.4368151, "actors": ["Steve McQueen", "Jacqueline Bisset", "Danny Aiello"], "location": "Marina Green (Marina District)", "latitude": 37.8036667, "fact": "Before the 1906 earthquake, the land on which Marina Green sits was a tidal marsh, and rubble from the earthquake was dumped on the site. However, the site was filled in to provide land for the 1915 Panama-Pacific Exhibition. "}
{"company": "Warner Brothers / Seven Arts\nSeven Arts", "director": "Peter Yates", "year": 1968, "distributor": "Warner Brothers", "title": "Bullitt", "writer": "Alan R. Trustman", "longitude": -122.4042514, "actors": ["Steve McQueen", "Jacqueline Bisset", "Danny Aiello"], "location": "Mansell & University Streets (Visitacion  Valley)", "latitude": 37.7171754, "fact": ""}
{"company": "Warner Brothers / Seven Arts\nSeven Arts", "director": "Peter Yates", "year": 1968, "distributor": "Warner Brothers", "title": "Bullitt", "writer": "Alan R. Trustman", "longitude": -122.4195558, "actors": ["Steve McQueen", "Jacqueline Bisset", "Danny Aiello"], "location": "Larkin & Francisco Streets (Russian Hill)", "latitude": 37.8010963, "fact": ""}
{"company": "Warner Brothers / Seven Arts\nSeven Arts", "director": "Peter Yates", "year": 1968, "distributor": "Warner Brothers", "title": "Bullitt", "writer": "Alan R. Trustman", "longitude": -122.4195558, "actors": ["Steve McQueen", "Jacqueline Bisset"], "location": "Larkin & Chestnut Streets (Russian Hill)", "latitude": 37.8010963, "fact": ""}
{"company": "Warner Brothers / Seven Arts\nSeven Arts", "director": "Peter Yates", "year": 1968, "distributor": "Warner Brothers", "title": "Bullitt", "writer": "Alan R. Trustman", "longitude": -122.3912215, "actors": ["Steve McQueen", "Jacqueline Bisset", "Colin Friels"], "location": "Kennedy Hotel (226 Embarcadero at Howard Street)", "latitude": 37.7923728, "fact": "Hotel was destroyed in the 1989 Loma Prieta earthquake. Corporate headquarters for the Gap reside at the location today."}
{"company": "Warner Brothers / Seven Arts\nSeven Arts", "director": "Peter Yates", "year": 1968, "distributor": "Warner Brothers", "title": "Bullitt", "writer": "Alan R. Trustman", "longitude": -122.4955458, "actors": ["Steve McQueen", "Jacqueline Bisset", "Colin Friels"], "location": "John Muir Drive (Lake Merced)", "latitude": 37.7206672, "fact": ""}
{"company": "Warner Brothers / Seven Arts\nSeven Arts", "director": "Peter Yates", "year": 1968, "distributor": "Warner Brothers", "title": "Bullitt", "writer": "Alan R. Trustman", "longitude": -122.4178378, "actors": ["Steve McQueen", "Jacqueline Bisset", "Colin Friels"], "location": "Intersection of York & Peralta (Bernal Heights)", "latitude": 37.7411622, "fact": ""}
{"company": "Warner Brothers / Seven Arts\nSeven Arts", "director": "Peter Yates", "year": 1968, "distributor": "Warner Brothers", "title": "Bullitt", "writer": "Alan R. Trustman", "longitude": -122.4056481, "actors": ["Steve McQueen", "Jacqueline Bisset", "Samantha Weaver"], "location": "Enrico's Caf\u00e9 (504 Broadway)", "latitude": 37.798165, "fact": ""}
{"company": "Warner Brothers / Seven Arts\nSeven Arts", "director": "Peter Yates", "year": 1968, "distributor": "Warner Brothers", "title": "Bullitt", "writer": "Alan R. Trustman", "longitude": -122.4103311, "actors": ["Steve McQueen", "Jacqueline Bisset", "Dermot Mulroney"], "location": "Columbus & Lombard Streets (North Beach)", "latitude": 37.8060532, "fact": ""}
{"company": "Warner Brothers / Seven Arts\nSeven Arts", "director": "Peter Yates", "year": 1968, "distributor": "Warner Brothers", "title": "Bullitt", "writer": "Alan R. Trustman", "longitude": -98.38972140000001, "actors": ["Steve McQueen", "Jacqueline Bisset", "Dermot Mulroney"], "location": "Cesar Chavez & Mission Street (Mission)", "latitude": 26.2209406, "fact": ""}
{"company": "Warner Brothers / Seven Arts\nSeven Arts", "director": "Peter Yates", "year": 1968, "distributor": "Warner Brothers", "title": "Bullitt", "writer": "Alan R. Trustman", "longitude": -122.3876407, "actors": ["Steve McQueen", "Jacqueline Bisset", "Dermot Mulroney"], "location": "Candlestick Park Exit, Highway 101", "latitude": 37.7138845, "fact": ""}
{"company": "Warner Brothers / Seven Arts\nSeven Arts", "director": "Peter Yates", "year": 1968, "distributor": "Warner Brothers", "title": "Bullitt", "writer": "Alan R. Trustman", "longitude": -122.4329853, "actors": ["Steve McQueen", "Jacqueline Bisset", "Dermot Mulroney"], "location": "Caf\u00e9 Cantata (2040 Union Street)", "latitude": 37.797639, "fact": ""}
{"company": "Warner Brothers / Seven Arts\nSeven Arts", "director": "Peter Yates", "year": 1968, "distributor": "Warner Brothers", "title": "Bullitt", "writer": "Alan R. Trustman", "longitude": -122.4107104, "actors": ["Steve McQueen", "Jacqueline Bisset", "Dermot Mulroney"], "location": "Brocklebank Apartments (1000 Mason Street)", "latitude": 37.7930742, "fact": ""}
{"company": "Warner Brothers / Seven Arts\nSeven Arts", "director": "Peter Yates", "year": 1968, "distributor": "Warner Brothers", "title": "Bullitt", "writer": "Alan R. Trustman", "longitude": -122.3739843, "actors": ["Steve McQueen", "Jacqueline Bisset"], "location": "Bay Bridge", "latitude": 37.8017005, "fact": "Before opening in 1936, the bridge was blessed by Cardinal Secretary of State Eugenio Pacelli, who later became Pope Pius XII. "}
{"company": "Warner Brothers / Seven Arts\nSeven Arts", "director": "Peter Yates", "year": 1968, "distributor": "Warner Brothers", "title": "Bullitt", "writer": "Alan R. Trustman", "longitude": -122.4382307, "actors": ["Steve McQueen", "Jacqueline Bisset"], "location": "2700 Vallejo Street (Pacific Heights)", "latitude": 37.7925153, "fact": ""}
{"company": "Warner Brothers / Seven Arts\nSeven Arts", "director": "Peter Yates", "year": 1968, "distributor": "Warner Brothers", "title": "Bullitt", "writer": "Alan R. Trustman", "longitude": -122.400869, "actors": ["Steve McQueen", "Jacqueline Bisset", "Luther Adler"], "location": "20th & Vermont Streets (Potrero Hill)", "latitude": 37.7604929, "fact": "The most crooked street in San Francisco is actually Potrero Hill's Vermont Street between 20th St & 22nd St."}
{"company": "Warner Brothers / Seven Arts\nSeven Arts", "director": "Peter Yates", "year": 1968, "distributor": "Warner Brothers", "title": "Bullitt", "writer": "Alan R. Trustman", "longitude": -122.4109508, "actors": ["Steve McQueen", "Jacqueline Bisset", "Luther Adler"], "location": "1153-57 Taylor Street", "latitude": 37.7829257, "fact": "Embarcadero Freeway, which was featured in the film was demolished in 1989 because of structural damage from the 1989 Loma Prieta Earthquake)"}
{"company": "Warner Bros. Pictures", "director": "Hugh Wilson", "year": 1987, "distributor": "Warner Bros. Pictures", "title": "Burglar", "writer": "Joseph Loeb III", "longitude": -122.4057019, "actors": ["Whoopi Goldberg", "Bobcat Goldwait", "Luther Adler"], "location": "Green Valley Restaurant (510 Green Street Near Grant)", "latitude": 37.7917189, "fact": ""}
{"company": "Warner Bros. Pictures", "director": "Hugh Wilson", "year": 1987, "distributor": "Warner Bros. Pictures", "title": "Burglar", "writer": "Joseph Loeb III", "longitude": -122.4492068, "actors": ["Whoopi Goldberg", "Bobcat Goldwait", "Luther Adler"], "location": "1627 Haight Street", "latitude": 37.769709, "fact": ""}
{"company": "Warner Bros. Pictures", "director": "Hugh Wilson", "year": 1987, "distributor": "Warner Bros. Pictures", "title": "Burglar", "writer": "Joseph Loeb III", "longitude": -122.3968104, "actors": ["Whoopi Goldberg", "Bobcat Goldwait", "Luther Adler"], "location": "1400 18th Street", "latitude": 37.76270640000001, "fact": ""}
{"company": "Steakhaus Productions", "director": "Harriet Dodge & Silas Howard", "year": 2001, "distributor": "Artistic License", "title": "By Hook or By Crook", "writer": "Harriet Dodge & Silas Howard", "longitude": -122.4218086, "actors": ["Silas Howard", "Luther Adler"], "location": "Royan Hotel (405 Valencia Street, Mission District)", "latitude": 37.7664055, "fact": ""}
{"company": "Steakhaus Productions", "director": "Harriet Dodge & Silas Howard", "year": 2001, "distributor": "Artistic License", "title": "By Hook or By Crook", "writer": "Harriet Dodge & Silas Howard", "longitude": -122.4182568, "actors": ["Silas Howard", "Luther Adler"], "location": "Department of Public Health (101 Grove Street at Polk, Civic Center)", "latitude": 37.7784944, "fact": ""}
{"company": "Steakhaus Productions", "director": "Harriet Dodge & Silas Howard", "year": 2001, "distributor": "Artistic License", "title": "By Hook or By Crook", "writer": "Harriet Dodge & Silas Howard", "longitude": -122.4207049, "actors": ["Silas Howard", "Luther Adler"], "location": "The Lexington Club (3464 19th Street at Lexington)", "latitude": 37.7601425, "fact": ""}
{"company": "EMI Films", "director": "Nancy Walker", "year": 1980, "distributor": "Associated Film Distribution (AFD)", "title": "Can't Stop the Music", "writer": "Allan Carr", "longitude": -122.4033689, "actors": [], "location": "101 Henry Adams Place", "latitude": 37.7681227, "fact": ""}
{"company": "Fire Horse Film Productions LLC", "director": "Annie Wang", "year": 2015, "distributor": "", "title": "Cardinal X", "writer": "Annie Wang", "longitude": -122.4069221, "actors": ["Annie Q", "Francesca Eastwood", "Pierson Fode"], "location": "119 Utah", "latitude": 37.7674562, "fact": ""}
{"company": "Fire Horse Film Productions LLC", "director": "Annie Wang", "year": 2015, "distributor": "", "title": "Cardinal X", "writer": "Annie Wang", "longitude": -122.4099429, "actors": ["Annie Q", "Francesca Eastwood", "Pierson Fode"], "location": "100 Alemany Blvd.", "latitude": 37.7357188, "fact": ""}
{"company": "Fire Horse Film Productions LLC", "director": "Annie Wang", "year": 2015, "distributor": "", "title": "Cardinal X", "writer": "Annie Wang", "longitude": -122.3892485, "actors": ["Annie Q", "Francesca Eastwood", "Pierson Fode"], "location": "812 22nd St. and Tennessee", "latitude": 37.7578902, "fact": ""}
{"company": "Fire Horse Film Productions LLC", "director": "Annie Wang", "year": 2015, "distributor": "", "title": "Cardinal X", "writer": "Annie Wang", "longitude": -122.5053516, "actors": ["Annie Q", "Francesca Eastwood", "Pierson Fode"], "location": "3639 Taraval St", "latitude": 37.7415807, "fact": ""}
{"company": "Fire Horse Film Productions LLC", "director": "Annie Wang", "year": 2015, "distributor": "", "title": "Cardinal X", "writer": "Annie Wang", "longitude": -122.491592, "actors": ["Annie Q", "Francesca Eastwood", "Pierson Fode"], "location": "1458 33rd Ave.", "latitude": 37.759951, "fact": ""}
{"company": "Fire Horse Film Productions LLC", "director": "Annie Wang", "year": 2015, "distributor": "", "title": "Cardinal X", "writer": "Annie Wang", "longitude": -122.4474686, "actors": ["Annie Q", "Francesca Eastwood", "Pierson Fode"], "location": "Lyon at Chestnut St.", "latitude": 37.799394, "fact": ""}
{"company": "Fire Horse Film Productions LLC", "director": "Annie Wang", "year": 2015, "distributor": "", "title": "Cardinal X", "writer": "Annie Wang", "longitude": -122.391257, "actors": ["Annie Q", "Francesca Eastwood", "Pierson Fode"], "location": "1559 Underwood Avenue between Lane and Keith", "latitude": 37.729144, "fact": ""}
{"company": "Fire Horse Film Productions LLC", "director": "Annie Wang", "year": 2015, "distributor": "", "title": "Cardinal X", "writer": "Annie Wang", "longitude": -122.387849, "actors": ["Annie Q", "Francesca Eastwood", "Pierson Fode"], "location": "1465 Revere Avenue between Keith and Jennings", "latitude": 37.730051, "fact": ""}
{"company": "Fire Horse Film Productions LLC", "director": "Annie Wang", "year": 2015, "distributor": "", "title": "Cardinal X", "writer": "Annie Wang", "longitude": -122.3896976, "actors": ["Annie Q", "Francesca Eastwood", "Pierson Fode"], "location": "1601 Lane St.", "latitude": 37.7318281, "fact": ""}
{"company": "Fire Horse Film Productions LLC", "director": "Annie Wang", "year": 2015, "distributor": "", "title": "Cardinal X", "writer": "Annie Wang", "longitude": -122.4095949, "actors": ["Annie Q", "Francesca Eastwood", "Pierson Fode"], "location": "420 Mason St.", "latitude": 37.7875663, "fact": ""}
{"company": "Columbia Pictures Corporation", "director": "Brian DePalma", "year": 1989, "distributor": "Columbia Pictures", "title": "Casualties of War", "writer": "Daniel Lang", "longitude": -122.4147977, "actors": ["Michael J. Fox", "Sean Penn"], "location": "Mission Dolores Park (Mission District) via J-Church MUNI Train", "latitude": 37.7598648, "fact": "The two land plots that comprise the Park were used as a Jewish cemetery until 1894 when San Francisco prohibited all burials within city limits. The graves were moved to Colma, CA."}
{"company": "New Yorker Films", "director": "Wayne Wang", "year": 1982, "distributor": "New Yorker Films", "title": "Chan is Missing", "writer": "Wayne Wang", "longitude": -122.4065048, "actors": [], "location": "Li Po (916 Grant Avenue at Washington, Chinatown)", "latitude": 37.7951646, "fact": ""}
{"company": "New Yorker Films", "director": "Wayne Wang", "year": 1982, "distributor": "New Yorker Films", "title": "Chan is Missing", "writer": "Wayne Wang", "longitude": -122.4065048, "actors": [], "location": "Golden Dragon Restaurant (816 Washington Street at Grant)", "latitude": 37.7951646, "fact": ""}
{"company": "3 Ring Circus Films", "director": "Finn Taylor", "year": 2002, "distributor": "Fine Line Features", "title": "Cherish", "writer": "Finn Taylor", "longitude": -122.4238364, "actors": ["Brad Hunt", "Robin Tunney", "Brian Cox"], "location": "387 Fair Oaks at 25th Street", "latitude": 37.7503114, "fact": ""}
{"company": "Melvin Simon Productions", "director": "David Lowell Rich", "year": 1981, "distributor": "Columbia Broadcasting System (CBS)", "title": "Chu Chu and the Philly Flash", "writer": "Henry Barrow", "longitude": -122.400869, "actors": ["Alan Arkin", "Carol Burnett"], "location": "22nd and Carolina Streets (Potrero Hill)", "latitude": 37.7604929, "fact": ""}
{"company": "Melvin Simon Productions", "director": "David Lowell Rich", "year": 1981, "distributor": "Columbia Broadcasting System (CBS)", "title": "Chu Chu and the Philly Flash", "writer": "Henry Barrow", "longitude": -122.3975826, "actors": ["Alan Arkin", "Carol Burnett"], "location": "Transbay Terminal (Mission Street at 1st Street)", "latitude": 37.7897863, "fact": "Built in 1939, the Terminal linked San Francisco, the East Bay, and Sacramento by rail for the first time."}
{"company": "Melvin Simon Productions", "director": "David Lowell Rich", "year": 1981, "distributor": "Columbia Broadcasting System (CBS)", "title": "Chu Chu and the Philly Flash", "writer": "Henry Barrow", "longitude": -122.4100354, "actors": ["Alan Arkin", "Carol Burnett"], "location": "Fairmont Hotel (950 Mason Street, Nob Hill)", "latitude": 37.7924959, "fact": "In 1945 the Fairmont hosted the United Nations Conference on International Organization as delegates arrived to draft a charter for the organization. The U.S. Secretary of State, Edward Stettinius drafted the charter in the hotel's Garden Room."}
{"company": "Atlas Entertainment", "director": "Brad Silberling", "year": 1998, "distributor": "Warner Bros. Pictures", "title": "City of Angels", "writer": "Dana Stevens", "longitude": -122.4157662, "actors": ["Nicholas Cage", "Meg Ryan"], "location": "San Francisco Public Library Main Branch (100 Larkin Street)", "latitude": 37.7791156, "fact": ""}
{"company": "Interscope Communications", "director": "Michael Apted", "year": 1991, "distributor": "Twentieth Century Fox Film Corp.", "title": "Class Action", "writer": "Carolyn Shelby", "longitude": -122.356952, "actors": ["Gene Hackman", "Mary Elizabeth Mastrantonio"], "location": "City Hall", "latitude": 37.9137666, "fact": "The dome of SF's City Hall is almost a foot taller than that of the US Capitol Building. In 1954, Joe DiMaggio and Marilyn Monroe married at the Beaux Arts-style building."}
{"company": "Interscope Communications", "director": "Michael Apted", "year": 1991, "distributor": "Twentieth Century Fox Film Corp.", "title": "Class Action", "writer": "Carolyn Shelby", "longitude": -122.4275673, "actors": ["Gene Hackman", "Mary Elizabeth Mastrantonio"], "location": "Mission Dolores (3321 16th Street, Mission District)", "latitude": 37.7643856, "fact": "Mission Dolores' official name is Mission San Francisco de Assis. It is the oldest building in San Francisco, built in 1791, and has survived two major earthquakes."}
{"company": "Interscope Communications", "director": "Michael Apted", "year": 1991, "distributor": "Twentieth Century Fox Film Corp.", "title": "Class Action", "writer": "Carolyn Shelby", "longitude": -122.4029418, "actors": ["Gene Hackman", "Mary Elizabeth Mastrantonio"], "location": "Bix Restaurant (56 Gold Street)", "latitude": 37.7968703, "fact": ""}
{"company": "Home Box Office (HBO)", "director": "Rob Epstein", "year": 1989, "distributor": "Direct Cinema Limited", "title": "Common Threads: Stories From the Quilt", "writer": "Jeffrey Friedman", "longitude": -122.4350043, "actors": ["Sara Lewinstein", "David Mandell"], "location": "The Castro", "latitude": 37.7609082, "fact": "From 1910-1920 the Castro was called \"Little Scandinavia\" because of its high concentration of residents of Scandinavian ancestry."}
{"company": "Regency Enterprises", "director": "Jon Amiel", "year": 1995, "distributor": "Warner Bros. Pictures", "title": "Copycat", "writer": "Ann Biderman", "longitude": -122.4368151, "actors": ["Sigourney Weaver", "Holly Hunter"], "location": "82 & 67 Rico Way (Marina District)", "latitude": 37.8036667, "fact": ""}
{"company": "Regency Enterprises", "director": "Jon Amiel", "year": 1995, "distributor": "Warner Bros. Pictures", "title": "Copycat", "writer": "Ann Biderman", "longitude": -122.370648, "actors": ["Sigourney Weaver", "Holly Hunter"], "location": "Treasure Island", "latitude": 37.8235515, "fact": "An artificial island, Treasure Island was created for the 1939 Golden Gate International Exposition, and is named after the novel by Robert Louis Stevenson, a one-time San Francisco resident."}
{"company": "Regency Enterprises", "director": "Jon Amiel", "year": 1995, "distributor": "Warner Bros. Pictures", "title": "Copycat", "writer": "Ann Biderman", "longitude": -122.4476845, "actors": ["Sigourney Weaver", "Holly Hunter"], "location": "Twin Peaks", "latitude": 37.7544066, "fact": "The 2nd highest point in SF after Mt. Davidson, Twin Peaks sit at the geographic center of SF. The native Ohlone people called the area \u201cLos Pechos de la Chola\u201d or \"Breasts of the Indian Maiden,\" but in the 19th Century when America took over the area, it was renamed \"Twin Peaks\"."}
{"company": "Regency Enterprises", "director": "Jon Amiel", "year": 1995, "distributor": "Warner Bros. Pictures", "title": "Copycat", "writer": "Ann Biderman", "longitude": -122.3929581, "actors": ["Sigourney Weaver", "Holly Hunter"], "location": "Sound Factory (1st and Harrison Streets)", "latitude": 37.7860781, "fact": ""}
{"company": "Regency Enterprises", "director": "Jon Amiel", "year": 1995, "distributor": "Warner Bros. Pictures", "title": "Copycat", "writer": "Ann Biderman", "longitude": -122.386636, "actors": ["Sigourney Weaver", "Holly Hunter"], "location": "Java House (Pier 40, Embarcadero)", "latitude": 37.78169, "fact": ""}
{"company": "Regency Enterprises", "director": "Jon Amiel", "year": 1995, "distributor": "Warner Bros. Pictures", "title": "Copycat", "writer": "Ann Biderman", "longitude": -122.4044547, "actors": ["Sigourney Weaver", "Holly Hunter"], "location": "Alta Plaza Park", "latitude": 37.8015319, "fact": "The park was originally a rock quarry and served as a campground for many survivors of the 1906 earthquake. The site was converted to a park in 1910."}
{"company": "Universal Pictures", "director": "Louis Malle", "year": 1984, "distributor": "Universal Pictures", "title": "Crackers", "writer": "Jeffrey Fiskin", "longitude": -122.4212866, "actors": ["Donald Sutherland", "Sean Penn"], "location": "La Rondalla (Valencia and 20th Streets)", "latitude": 37.7584974, "fact": ""}
{"company": "Universal Pictures", "director": "Louis Malle", "year": 1984, "distributor": "Universal Pictures", "title": "Crackers", "writer": "Jeffrey Fiskin", "longitude": -122.4135358, "actors": ["Donald Sutherland", "Sean Penn"], "location": "24th Street between Mission Street and Potrero Avenue", "latitude": 37.7525362, "fact": ""}
{"company": "CBS Television Studios", "director": "Vikki Williams", "year": 2012, "distributor": "Columbia Broadcasting System", "title": "CSI: NY- episode 903", "writer": "Anthony E. Zuiker", "longitude": -122.448053, "actors": ["Gary Sinise", "Sela Ward", "Carmine Giovinazzo"], "location": "Palace of Fine Arts", "latitude": 37.801456, "fact": ""}
{"company": "Warner Bros. Pictures", "director": "Delmer Daves", "year": 1947, "distributor": "Warner Bros. Pictures", "title": "Dark Passage", "writer": "Delmer Daves & David Goodis", "longitude": -122.4047919, "actors": ["Humphrey Bogart", "Lauren Bacal", "Raven-Symone"], "location": "Filbert Steps, Filbert Street", "latitude": 37.802008, "fact": ""}
{"company": "Warner Bros. Pictures", "director": "Delmer Daves", "year": 1947, "distributor": "Warner Bros. Pictures", "title": "Dark Passage", "writer": "Delmer Daves & David Goodis", "longitude": -122.4043215, "actors": ["Humphrey Bogart", "Lauren Bacal", "Bruno Campos"], "location": "The Malloch Apartment Building (1360 Montgomery Street)", "latitude": 37.8017938, "fact": ""}
{"company": "Fox Louisiana Productions, LLC", "director": "Matt Reeves", "year": 2014, "distributor": "Twentieth Century Fox", "title": "Dawn of the Planet of the Apes", "writer": "Rick Jaffa", "longitude": -122.4449279, "actors": ["Gary Oldman", "Keri Russell", "Andy Serkis"], "location": "California St from Mason to Kearny", "latitude": 37.7875491, "fact": ""}
{"company": "Fox Louisiana Productions, LLC", "director": "Matt Reeves", "year": 2014, "distributor": "Twentieth Century Fox", "title": "Dawn of the Planet of the Apes", "writer": "Rick Jaffa", "longitude": -122.4093279, "actors": ["Gary Oldman", "Keri Russell", "Andy Serkis"], "location": "California & Powell ", "latitude": 37.7919426, "fact": ""}
{"company": "Fox Louisiana Productions, LLC", "director": "Matt Reeves", "year": 2014, "distributor": "Twentieth Century Fox", "title": "Dawn of the Planet of the Apes", "writer": "Rick Jaffa", "longitude": -122.4181453, "actors": ["Gary Oldman", "Keri Russell", "Andy Serkis"], "location": "Alioto Park", "latitude": 37.7588666, "fact": ""}
{"company": "Fox Louisiana Productions, LLC", "director": "Matt Reeves", "year": 2014, "distributor": "Twentieth Century Fox", "title": "Dawn of the Planet of the Apes", "writer": "Rick Jaffa", "longitude": -77.0499251, "actors": ["Gary Oldman", "Keri Russell", "Andy Serkis"], "location": "University Club", "latitude": -12.0873271, "fact": ""}
{"company": "Fox Louisiana Productions, LLC", "director": "Matt Reeves", "year": 2014, "distributor": "Twentieth Century Fox", "title": "Dawn of the Planet of the Apes", "writer": "Rick Jaffa", "longitude": -122.424127, "actors": ["Gary Oldman", "Keri Russell", "Andy Serkis"], "location": "Filbert St. from Hyde to Leavenworth", "latitude": 37.7994987, "fact": ""}
{"company": "Fox Louisiana Productions, LLC", "director": "Matt Reeves", "year": 2014, "distributor": "Twentieth Century Fox", "title": "Dawn of the Planet of the Apes", "writer": "Rick Jaffa", "longitude": -122.356952, "actors": ["Gary Oldman", "Keri Russell", "Andy Serkis"], "location": "City Hall", "latitude": 37.9137666, "fact": ""}
{"company": "Fox Louisiana Productions, LLC", "director": "Matt Reeves", "year": 2014, "distributor": "Twentieth Century Fox", "title": "Dawn of the Planet of the Apes", "writer": "Rick Jaffa", "longitude": -122.4055862, "actors": ["Gary Oldman", "Keri Russell", "Andy Serkis"], "location": "Columbus & Pacific Ave", "latitude": 37.7970914, "fact": ""}
{"company": "CIM", "director": "Wayne Wang", "year": 1985, "distributor": "Orion Classics", "title": "Dim Sum: A Little Bit of Heart", "writer": "Terrel Seltzer", "longitude": -122.3789554, "actors": ["Raven-Symone"], "location": "San Francisco International Airport", "latitude": 37.6213129, "fact": "SFO has a museum dedicated to aviation history. "}
{"company": "CIM", "director": "Wayne Wang", "year": 1985, "distributor": "Orion Classics", "title": "Dim Sum: A Little Bit of Heart", "writer": "Terrel Seltzer", "longitude": -122.4065048, "actors": ["Raven-Symone"], "location": "Li Po (916 Grant Avenue at Washington, Chinatown)", "latitude": 37.7951646, "fact": ""}
{"company": "CIM", "director": "Wayne Wang", "year": 1985, "distributor": "Orion Classics", "title": "Dim Sum: A Little Bit of Heart", "writer": "Terrel Seltzer", "longitude": -122.4077914, "actors": [], "location": "Chinatown", "latitude": 37.7941378, "fact": "First established in the mid-19th Century, SF's Chinatown is the oldest and largest Chinatown in the US."}
{"company": "The Malpaso Company", "director": "Don Siegel", "year": 1971, "distributor": "Warner Brothers", "title": "Dirty Harry", "writer": "Harry Julian Fink", "longitude": -122.4391137, "actors": ["Clint Eastwood", "Woody Harrelson"], "location": "Marina Green, Marina District", "latitude": 37.8066235, "fact": "Before the 1906 earthquake, the land on which Marina Green sits was a tidal marsh, and rubble from the earthquake was dumped on the site. However, the site was filled in to provide land for the 1915 Panama-Pacific Exhibition. "}
{"company": "The Malpaso Company", "director": "Don Siegel", "year": 1971, "distributor": "Warner Brothers", "title": "Dirty Harry", "writer": "Harry Julian Fink", "longitude": -122.410111, "actors": ["Clint Eastwood"], "location": "Washington Square, North Beach", "latitude": 37.8009182, "fact": ""}
{"company": "The Malpaso Company", "director": "Don Siegel", "year": 1971, "distributor": "Warner Brothers", "title": "Dirty Harry", "writer": "Harry Julian Fink", "longitude": -122.3976732, "actors": ["Clint Eastwood", "Cathy Moriarty"], "location": "The Embarcadero", "latitude": 37.7992627, "fact": ""}
{"company": "The Malpaso Company", "director": "Don Siegel", "year": 1971, "distributor": "Warner Brothers", "title": "Dirty Harry", "writer": "Harry Julian Fink", "longitude": -122.410261, "actors": ["Clint Eastwood", "Cathy Moriarty"], "location": "St. Peter & Paul's Church (666 Filbert Street, Washington Square)", "latitude": 37.80159039999999, "fact": "Though Marilyn Monroe and Joe DiMaggio were not allowed to be married at the Church (DiMaggio had married his first wife at the Church but was divorced), the couple returned to the steps of the Church for photos, following their City Hall nuptials."}
{"company": "The Malpaso Company", "director": "Don Siegel", "year": 1971, "distributor": "Warner Brothers", "title": "Dirty Harry", "writer": "Harry Julian Fink", "longitude": -122.387575, "actors": ["Clint Eastwood"], "location": "San Francisco Drydock (20th and Illinois Streets)", "latitude": 37.7605687, "fact": ""}
{"company": "The Malpaso Company", "director": "Don Siegel", "year": 1971, "distributor": "Warner Brothers", "title": "Dirty Harry", "writer": "Harry Julian Fink", "longitude": -122.4077914, "actors": ["Clint Eastwood", "Woody Harrelson"], "location": "Portsmouth Square (Chinatown)", "latitude": 37.7941378, "fact": "In 1847 the first public school in California was erected on what would become Portsmouth Square."}
{"company": "The Malpaso Company", "director": "Don Siegel", "year": 1971, "distributor": "Warner Brothers", "title": "Dirty Harry", "writer": "Harry Julian Fink", "longitude": -122.4547746, "actors": ["Clint Eastwood", "Woody Harrelson"], "location": "Mt. Davidson Cross, Mt. Davidson", "latitude": 37.738346, "fact": "The cross sits at the highest point in San Francisco (938 feet). This version of the cross was erected in 1934.Though in Dirty Harry the cross is lit at night, the City stopped this practice in 1990."}
{"company": "The Malpaso Company", "director": "Don Siegel", "year": 1971, "distributor": "Warner Brothers", "title": "Dirty Harry", "writer": "Harry Julian Fink", "longitude": -122.4147977, "actors": ["Clint Eastwood", "Woody Harrelson"], "location": "Mission Dolores Park (Mission District)", "latitude": 37.7598648, "fact": "The two land plots that comprise the Park were used as a Jewish cemetery until 1894 when San Francisco prohibited all burials within city limits. The graves were moved to Colma, CA."}
{"company": "The Malpaso Company", "director": "Don Siegel", "year": 1971, "distributor": "Warner Brothers", "title": "Dirty Harry", "writer": "Harry Julian Fink", "longitude": -122.4044887, "actors": ["Clint Eastwood", "Woody Harrelson"], "location": "Holiday Inn Select Downtown Hotel (750 Kearney Street)", "latitude": 37.7951205, "fact": ""}
{"company": "The Malpaso Company", "director": "Don Siegel", "year": 1971, "distributor": "Warner Brothers", "title": "Dirty Harry", "writer": "Harry Julian Fink", "longitude": -122.404191, "actors": ["Clint Eastwood", "Woody Harrelson"], "location": "Hall of Justice (850 Bryant Street)", "latitude": 37.7753903, "fact": ""}
{"company": "The Malpaso Company", "director": "Don Siegel", "year": 1971, "distributor": "Warner Brothers", "title": "Dirty Harry", "writer": "Harry Julian Fink", "longitude": -122.4651232, "actors": ["Clint Eastwood", "Woody Harrelson"], "location": "Forest Hill Station- MUNI", "latitude": 37.7473152, "fact": ""}
{"company": "The Malpaso Company", "director": "Don Siegel", "year": 1971, "distributor": "Warner Brothers", "title": "Dirty Harry", "writer": "Harry Julian Fink", "longitude": -122.4092244, "actors": ["Clint Eastwood", "Woody Harrelson"], "location": "Dante Building (1606 Stockton Street at Union)", "latitude": 37.8004633, "fact": ""}
{"company": "The Malpaso Company", "director": "Don Siegel", "year": 1971, "distributor": "Warner Brothers", "title": "Dirty Harry", "writer": "Harry Julian Fink", "longitude": -122.4206465, "actors": ["Clint Eastwood"], "location": "California Hall (625 Polk Street, Van Ness/Civic Center)", "latitude": 37.7814657, "fact": ""}
{"company": "The Malpaso Company", "director": "Don Siegel", "year": 1971, "distributor": "Warner Brothers", "title": "Dirty Harry", "writer": "Harry Julian Fink", "longitude": -122.4036967, "actors": ["Clint Eastwood"], "location": "Bank of America Building (555 California Street)", "latitude": 37.7920621, "fact": "The Bank of America Building was the tallest building on the West Coast from 1969-1972, when it was surpassed by the TransAmerica Pyramid. Today, the Bank of America building is the 5th tallest building on the West Coast."}
{"company": "Cardinal Pictures", "director": "Rudolph Mate", "year": 1950, "distributor": "United Artists", "title": "D.O.A", "writer": "Russell Rouse", "longitude": -122.4087315, "actors": ["Edmond O'Brien", "Pamela Britton"], "location": "Westin St. Francis Hotel (335 Powell Street)", "latitude": 37.7878279, "fact": "The hotel was originally supposed to be named the Crocker Hotel, after Charles Founder the railroad magnate who founded it. However, the hotel took the name the St. Francis after one of the earliest Gold Rush hotels. "}
{"company": "Cardinal Pictures", "director": "Rudolph Mate", "year": 1950, "distributor": "United Artists", "title": "D.O.A", "writer": "Russell Rouse", "longitude": -122.4074374, "actors": ["Edmond O'Brien", "Pamela Britton", "Oliver Platt"], "location": "Union Square", "latitude": 37.7879938, "fact": "During the Civil War, pro-Union rallies were held in the Square, and thus the area was called \"Union Square\". "}
{"company": "Cardinal Pictures", "director": "Rudolph Mate", "year": 1950, "distributor": "United Artists", "title": "D.O.A", "writer": "Russell Rouse", "longitude": -122.3976732, "actors": ["Edmond O'Brien", "Pamela Britton", "Oliver Platt"], "location": "The Embarcadero/ Ferry Building", "latitude": 37.7992627, "fact": "Every hour and half-hour, the clock bell atop the Ferry Building chimes portions of the Westminster Quarters."}
{"company": "Cardinal Pictures", "director": "Rudolph Mate", "year": 1950, "distributor": "United Artists", "title": "D.O.A", "writer": "Russell Rouse", "longitude": -122.4418679, "actors": ["Edmond O'Brien", "Pamela Britton", "Oliver Platt"], "location": "Southern Pacific Memorial Hospital (1400 Fell Street)", "latitude": 37.7734008, "fact": ""}
{"company": "Cardinal Pictures", "director": "Rudolph Mate", "year": 1950, "distributor": "United Artists", "title": "D.O.A", "writer": "Russell Rouse", "longitude": -122.4091701, "actors": ["Edmond O'Brien", "Pamela Britton", "Oliver Platt"], "location": "Powell & California Streets", "latitude": 37.7920705, "fact": ""}
{"company": "Cardinal Pictures", "director": "Rudolph Mate", "year": 1950, "distributor": "United Artists", "title": "D.O.A", "writer": "Russell Rouse", "longitude": -122.3999445, "actors": ["Edmond O'Brien", "Pamela Britton", "Oliver Platt"], "location": "Market & Steuart Streets (Financial District)", "latitude": 37.7945742, "fact": ""}
{"company": "Cardinal Pictures", "director": "Rudolph Mate", "year": 1950, "distributor": "United Artists", "title": "D.O.A", "writer": "Russell Rouse", "longitude": -122.4101888, "actors": ["Edmond O'Brien", "Pamela Britton", "Oliver Platt"], "location": "Mark Hopkins Intercontinental Hotel (1 Nob Hill Circle)", "latitude": 37.7914046, "fact": "The Top of the Mark lounge and restaurant at the top of the hotel was formerly a penthouse suite."}
{"company": "Cardinal Pictures", "director": "Rudolph Mate", "year": 1950, "distributor": "United Artists", "title": "D.O.A", "writer": "Russell Rouse", "longitude": -122.4143053, "actors": ["Edmond O'Brien", "Pamela Britton", "Bruno Campos"], "location": "Chambord Apartments (1298 Sacramento Street at Jones)", "latitude": 37.7923527, "fact": ""}
{"company": "Twentieth Century Fox Film Cooperation", "director": "Betty Thomas", "year": 1998, "distributor": "Twentieth Century Fox Film Cooperation", "title": "Doctor Dolittle", "writer": "Nat Mauldin", "longitude": -122.4319175, "actors": ["Eddie Murphy", "Ossie Davis"], "location": "Webster Street", "latitude": 37.7876882, "fact": ""}
{"company": "Twentieth Century Fox Film Cooperation", "director": "Betty Thomas", "year": 1998, "distributor": "Twentieth Century Fox Film Cooperation", "title": "Doctor Dolittle", "writer": "Nat Mauldin", "longitude": -122.4056674, "actors": ["Eddie Murphy", "Ossie Davis"], "location": "Telegraph Hill Blvd (Telegraph Hill)", "latitude": 37.8013407, "fact": ""}
{"company": "Twentieth Century Fox Film Cooperation", "director": "Betty Thomas", "year": 1998, "distributor": "Twentieth Century Fox Film Cooperation", "title": "Doctor Dolittle", "writer": "Nat Mauldin", "longitude": -122.3933992, "actors": ["Eddie Murphy", "Ossie Davis"], "location": "Gabbiano's Restaurant (Ferry Building)", "latitude": 37.7910385, "fact": "Every hour and half-hour, the clock bell atop the Ferry Building chimes portions of the Westminster Quarters."}
{"company": "Twentieth Century Fox Film Cooperation", "director": "Betty Thomas", "year": 1998, "distributor": "Twentieth Century Fox Film Cooperation", "title": "Doctor Dolittle", "writer": "Nat Mauldin", "longitude": -122.4058222, "actors": ["Eddie Murphy", "Ossie Davis"], "location": "Coit Tower", "latitude": 37.8023949, "fact": "The Tower was funded by a gift bequeathed by Lillie Hitchcock Coit, a socialite who reportedly liked to chase fires. Though the tower resembles a firehose nozzle, it was not designed this way."}
{"company": "Twentieth Century Fox Film Cooperation", "director": "Betty Thomas", "year": 1998, "distributor": "Twentieth Century Fox Film Cooperation", "title": "Doctor Dolittle", "writer": "Nat Mauldin", "longitude": -122.4340934, "actors": ["Eddie Murphy", "Ossie Davis"], "location": "2107 Union Street", "latitude": 37.7971178, "fact": ""}
{"company": "Twentieth Century Fox Film Cooperation", "director": "Betty Thomas", "year": 1998, "distributor": "Twentieth Century Fox Film Cooperation", "title": "Doctor Dolittle", "writer": "Nat Mauldin", "longitude": -122.433981, "actors": ["Eddie Murphy", "Ossie Davis"], "location": "2100 Green Street", "latitude": 37.796589, "fact": ""}
{"company": "Twentieth Century Fox Film Corp.", "director": "Steve Carr", "year": 2001, "distributor": "Twentieth Century Fox Film Corp.", "title": "Dr. Dolittle 2", "writer": "Larry Levin", "longitude": -122.4276799, "actors": ["Eddie Murphy", "Kristen Wilson", "William Devane"], "location": "Sacramento St., Between Pierce & Broderick Streets ", "latitude": 37.7906464, "fact": ""}
{"company": "Twentieth Century Fox Film Corp.", "director": "Steve Carr", "year": 2001, "distributor": "Twentieth Century Fox Film Corp.", "title": "Dr. Dolittle 2", "writer": "Larry Levin", "longitude": -122.4196662, "actors": ["Eddie Murphy", "Kristen Wilson", "William Devane"], "location": "Hyde Street & Lombard Street", "latitude": 37.8020032, "fact": ""}
{"company": "Twentieth Century Fox Film Corp.", "director": "Steve Carr", "year": 2001, "distributor": "Twentieth Century Fox Film Corp.", "title": "Dr. Dolittle 2", "writer": "Larry Levin", "longitude": -122.4219451, "actors": ["Eddie Murphy", "Kristen Wilson", "Laura Dern"], "location": "Broadway, Between Franklin & Laguna Streets", "latitude": 37.7959341, "fact": ""}
{"company": "Triton Productions", "director": "Tiffanie DeBartolo", "year": 1996, "distributor": "Columbia TriStar Home Video", "title": "Dream for an Insomniac", "writer": "Tiffanie DeBartolo", "longitude": -122.483638, "actors": ["Ione Skye", "Jennifer Aniston", "Rosie Perez"], "location": "Baker Beach", "latitude": 37.7935724, "fact": "From 1986-1990, the north end of Baker Beach was home to the Burning Man festival."}
{"company": "Triton Productions", "director": "Tiffanie DeBartolo", "year": 1996, "distributor": "Columbia TriStar Home Video", "title": "Dream for an Insomniac", "writer": "Tiffanie DeBartolo", "longitude": -122.4214571, "actors": ["Ione Skye", "Jennifer Aniston", "Julia Louis-Dreyfus"], "location": "Elbo Room (647 Valencia Street)", "latitude": 37.7625104, "fact": "This location is called the \"Caf\u00e9 Blue Eyes\" in the film."}
{"company": "3 Ring Circus Films", "director": "Finn Taylor", "year": 1997, "distributor": "Sony Pictures Classics", "title": "Dream with the Fishes", "writer": "Finn Taylor & Jeffrey Brown", "longitude": -122.3739843, "actors": ["David Arquette", "Brad Hunt", "Rosie Perez"], "location": "Bay Bridge", "latitude": 37.8017005, "fact": "Before opening in 1936, the bridge was blessed by Cardinal Secretary of State Eugenio Pacelli, who later became Pope Pius XII. "}
{"company": "3 Ring Circus Films", "director": "Finn Taylor", "year": 1997, "distributor": "Sony Pictures Classics", "title": "Dream with the Fishes", "writer": "Finn Taylor & Jeffrey Brown", "longitude": -122.4103318, "actors": ["David Arquette", "Brad Hunt", "Rosie Perez"], "location": "Pier 39", "latitude": 37.8101017, "fact": ""}
{"company": "Imagine Entertainment", "director": "Ron Howard", "year": 1999, "distributor": "MCA / Universal Pictures", "title": "Edtv", "writer": "Lowell Ganz", "longitude": -122.4487738, "actors": ["Matthew McConaughey", "Jenna Elfman", "Rosie Perez"], "location": "Palace of Fine Arts (3301 Lyon Street)", "latitude": 37.8028993, "fact": "The original Palace was built for the 1915 Panama-Pacific Exposition, and completely destroyed in 1964. It was rebuilt in 1965."}
{"company": "Imagine Entertainment", "director": "Ron Howard", "year": 1999, "distributor": "MCA / Universal Pictures", "title": "Edtv", "writer": "Lowell Ganz", "longitude": -122.4090948, "actors": ["Matthew McConaughey", "Jenna Elfman", "Rosie Perez"], "location": "Moose's Restaurant (1652 Stockton)", "latitude": 37.80109119999999, "fact": ""}
{"company": "Imagine Entertainment", "director": "Ron Howard", "year": 1999, "distributor": "MCA / Universal Pictures", "title": "Edtv", "writer": "Lowell Ganz", "longitude": -122.410111, "actors": ["Matthew McConaughey", "Jenna Elfman", "Rosie Perez"], "location": "Mario's Bohemian Cigar Store (Washington Square)", "latitude": 37.8009182, "fact": ""}
{"company": "Imagine Entertainment", "director": "Ron Howard", "year": 1999, "distributor": "MCA / Universal Pictures", "title": "Edtv", "writer": "Lowell Ganz", "longitude": -122.4024238, "actors": ["Matthew McConaughey", "Jenna Elfman", "Rosie Perez"], "location": "Center for the Arts, Yerba Buena Gardens (701 Mission Street)", "latitude": 37.7857984, "fact": ""}
{"company": "Imagine Entertainment", "director": "Ron Howard", "year": 1999, "distributor": "MCA / Universal Pictures", "title": "Edtv", "writer": "Lowell Ganz", "longitude": -122.4347591, "actors": ["Matthew McConaughey", "Jenna Elfman", "Uma Thurman"], "location": "Castro Theatre (429 Castro Street, The Castro)", "latitude": 37.7620333, "fact": "The original Castro Theatre was built in 1910, a few doors down from the current theatre. The original theatre was converted into retail space, and the current theatre was built in the 1920s."}
{"company": "Imagine Entertainment", "director": "Ron Howard", "year": 1999, "distributor": "MCA / Universal Pictures", "title": "Edtv", "writer": "Lowell Ganz", "longitude": -122.400869, "actors": ["Matthew McConaughey", "Jenna Elfman", "Uma Thurman"], "location": "20th & Connecticut Streets (Potrero Hill)", "latitude": 37.7604929, "fact": ""}
{"company": "Imagine Entertainment", "director": "Ron Howard", "year": 1999, "distributor": "MCA / Universal Pictures", "title": "Edtv", "writer": "Lowell Ganz", "longitude": -122.4103311, "actors": ["Matthew McConaughey", "Jenna Elfman", "Uma Thurman"], "location": "19 Green Street (North Beach)", "latitude": 37.8060532, "fact": ""}
{"company": "Imagine Entertainment", "director": "Ron Howard", "year": 1999, "distributor": "MCA / Universal Pictures", "title": "Edtv", "writer": "Lowell Ganz", "longitude": -122.418279, "actors": ["Matthew McConaughey", "Jenna Elfman", "Uma Thurman"], "location": "1138 Filbert Street", "latitude": 37.800566, "fact": ""}
{"company": "Imagine Entertainment", "director": "Ron Howard", "year": 1999, "distributor": "MCA / Universal Pictures", "title": "Edtv", "writer": "Lowell Ganz", "longitude": -122.4074187, "actors": ["Matthew McConaughey", "Jenna Elfman", "Rosie Perez"], "location": "North Beach Video (1398 Grant Avenue at Green)", "latitude": 37.7997174, "fact": "The video store has since moved to an adjacent location. "}
{"company": "Paramount Pictures", "director": "Donald Siegel", "year": 1979, "distributor": "Paramount Pictures", "title": "Escape From Alcatraz", "writer": "Richard Tuggle", "longitude": -122.4229555, "actors": ["Clint Eastwood", "Patrick McGoohan", "Uma Thurman"], "location": "Alcatraz Island", "latitude": 37.8269775, "fact": "Alcatraz Island was a military fort before it became a prison."}
{"company": "Columbia Pictures Corporation", "director": "Blake Edwards", "year": 1962, "distributor": "Columbia Pictures", "title": "Experiment in Terror", "writer": "The Gordons", "longitude": -122.4177434, "actors": ["Glenn Ford", "Lee Remick"], "location": "The Sea Captain's Chest (Fisherman's Wharf)", "latitude": 37.8079996, "fact": ""}
{"company": "Columbia Pictures Corporation", "director": "Blake Edwards", "year": 1962, "distributor": "Columbia Pictures", "title": "Experiment in Terror", "writer": "The Gordons", "longitude": -122.4067348, "actors": ["Glenn Ford", "Lee Remick", "Sally Field"], "location": "Roaring Twenties Nightclub (555 Broadway at Columbus)", "latitude": 37.7978825, "fact": ""}
{"company": "Columbia Pictures Corporation", "director": "Blake Edwards", "year": 1962, "distributor": "Columbia Pictures", "title": "Experiment in Terror", "writer": "The Gordons", "longitude": -122.4917623, "actors": ["Glenn Ford", "Lee Remick"], "location": "George Washington High School (600 32nd Avenue )", "latitude": 37.7777914, "fact": ""}
{"company": "Columbia Pictures Corporation", "director": "Blake Edwards", "year": 1962, "distributor": "Columbia Pictures", "title": "Experiment in Terror", "writer": "The Gordons", "longitude": -122.3970456, "actors": ["Glenn Ford", "Lee Remick"], "location": "Wells Fargo Bank (1 California Street, Financial District)", "latitude": 37.79330119999999, "fact": ""}
{"company": "Columbia Pictures Corporation", "director": "Blake Edwards", "year": 1962, "distributor": "Columbia Pictures", "title": "Experiment in Terror", "writer": "The Gordons", "longitude": -122.4019321, "actors": ["Glenn Ford", "Lee Remick"], "location": "Sheraton Palace Hotel (2 Montgomery Street, Financial District)", "latitude": 37.7891262, "fact": "The hotel was destroyed in the 1906 earthquake and fire, had to be rebuilt, and was reopened in 1909. "}
{"company": "Columbia Pictures Corporation", "director": "Blake Edwards", "year": 1962, "distributor": "Columbia Pictures", "title": "Experiment in Terror", "writer": "The Gordons", "longitude": -122.3876407, "actors": ["Glenn Ford", "Lee Remick"], "location": "Candlestick Park", "latitude": 37.7138845, "fact": "Then Vice President Richard Nixon threw out the first pitch when Candlestick opened in 1960. On August 29, 1966, The Beatles played their last concert for paying fans at Candlestick Park."}
{"company": "Columbia Pictures Corporation", "director": "Blake Edwards", "year": 1962, "distributor": "Columbia Pictures", "title": "Experiment in Terror", "writer": "The Gordons", "longitude": -122.4212684, "actors": ["Glenn Ford", "Lee Remick"], "location": "2632 Larkin Street at Lombard", "latitude": 37.8017921, "fact": ""}
{"company": "Columbia Pictures Corporation", "director": "Blake Edwards", "year": 1962, "distributor": "Columbia Pictures", "title": "Experiment in Terror", "writer": "The Gordons", "longitude": -122.450526, "actors": ["Glenn Ford", "Lee Remick"], "location": "100 St. Germain Avenue", "latitude": 37.757652, "fact": ""}
{"company": "Columbia Pictures Corporation", "director": "Blake Edwards", "year": 1962, "distributor": "Columbia Pictures", "title": "Experiment in Terror", "writer": "The Gordons", "longitude": -122.4020365, "actors": ["Glenn Ford", "Lee Remick"], "location": "1 Montgomery Street at Post", "latitude": 37.7891114, "fact": ""}
{"company": "Universal Pictures", "director": "Alfred Hitchcock", "year": 1976, "distributor": "Universal Pictures", "title": "Family Plot", "writer": "Ernest Lehman", "longitude": -122.4306059, "actors": ["Bruce Dern", "Barbara Harris"], "location": "2230 Sacramento Street", "latitude": 37.7905319, "fact": "Called \"1001 Franklin\" in the film."}
{"company": "Universal Pictures", "director": "Alfred Hitchcock", "year": 1976, "distributor": "Universal Pictures", "title": "Family Plot", "writer": "Ernest Lehman", "longitude": -122.416113, "actors": ["Bruce Dern", "Barbara Harris"], "location": "Nob Hill", "latitude": 37.793014, "fact": "Railroad tycoons like Leland Stanford (founder of Stanford University) lived in Nob Hill at the turn of the 20th Century. The 1906 earthquake completely destroyed Nob Hill, with the exception of the wall that surrounded the mansions of Stanford and his neighbor Mark Hopkins. "}
{"company": "Universal Pictures", "director": "Alfred Hitchcock", "year": 1976, "distributor": "Universal Pictures", "title": "Family Plot", "writer": "Ernest Lehman", "longitude": -122.4100354, "actors": ["Bruce Dern", "Barbara Harris"], "location": "Fairmont Hotel (950 Mason Street, Nob Hill)", "latitude": 37.7924959, "fact": "In 1945 the Fairmont hosted the United Nations Conference on International Organization as delegates arrived to draft a charter for the organization. The U.S. Secretary of State, Edward Stettinius drafted the charter in the hotel's Garden Room."}
{"company": "Universal Pictures", "director": "Alfred Hitchcock", "year": 1976, "distributor": "Universal Pictures", "title": "Family Plot", "writer": "Ernest Lehman", "longitude": -122.4133435, "actors": ["Bruce Dern", "Barbara Harris"], "location": "Grace Cathedral Episcopal Church (1100 California Street)", "latitude": 37.7918345, "fact": "Grace Cathedral Episcopal Church is the West Coast's largest Episcopalian cathedral."}
{"company": "Paramount Pictures", "director": "Roland Joffe", "year": 1989, "distributor": "Paramount Pictures", "title": "Fat Man and Little Boy", "writer": "Roland Joffe", "longitude": -122.4326787, "actors": ["Paul Newman", "John Cusack"], "location": "Postcard Row (Alamo Square, Hayes Valley)", "latitude": 37.77565980000001, "fact": "The 6 Victorian homes across from Alamo Square Park are among the few Victorians to survive the Great Fire."}
{"company": "Spring Creek Productions", "director": "Peter Weir", "year": 1993, "distributor": "Warner Bros. Pictures", "title": "Fearless", "writer": "Rafael Yglesias", "longitude": -122.4033805, "actors": ["Jeff Bridges", "Isabella Rosellini"], "location": "90 Gold Street", "latitude": 37.79679, "fact": ""}
{"company": "Spring Creek Productions", "director": "Peter Weir", "year": 1993, "distributor": "Warner Bros. Pictures", "title": "Fearless", "writer": "Rafael Yglesias", "longitude": -122.4025849, "actors": ["Jeff Bridges", "Isabella Rosellini"], "location": "400 Montgomery Street", "latitude": 37.7931409, "fact": ""}
{"company": "Spring Creek Productions", "director": "Peter Weir", "year": 1993, "distributor": "Warner Bros. Pictures", "title": "Fearless", "writer": "Rafael Yglesias", "longitude": -122.3901562, "actors": ["Jeff Bridges", "Isabella Rosellini"], "location": "Folsom Street & Embarcadero", "latitude": 37.7907606, "fact": ""}
